place_name,food,address,gu,lat,lng
커먼맨션,아시안/양식,서울특별시 종로구 경희궁길 36,종로구,37.5729199136655,126.970063182815
귀한돌짜장 매운갈비찜,찜탕,서울특별시 강북구 4.19로 55,강북구,37.6464195318033,127.008571542548
할배골,한식,서울특별시 도봉구 도봉로 493-4,도봉구,37.6498328252136,127.034922650748
본죽&비빔밥 서울양원역점,한식,서울특별시 중랑구 양원역로 82,중랑구,37.6074690986259,127.10587385401
육회먹은 꼬막,회,서울특별시 성북구 돌곶이로18길 29,성북구,37.6095649336132,127.06058649178
유노초밥,돈까스/일식,서울특별시 광진구 용마산로 112,광진구,37.5636905910702,127.087129875529
형제보쌈,한식,서울특별시 성동구 고산자로 177,성동구,37.5557304486542,127.033577643563
트랑페,한식,서울특별시 서대문구 세검정로1길 79,서대문구,37.5939530294587,126.945529125939
마라공방(은평구청점),한식,서울특별시 은평구 은평로 197,은평구,37.6016437882797,126.92951057903
용산주가,중식,서울특별시 용산구 한강대로84길 11-11,용산구,37.5440084607381,126.973117287611
테이스트메이드,아시안/양식,서울특별시 종로구 필운대로1길 8,종로구,37.5774706425237,126.968959973229
The 청춘키친 은평점,한식,서울특별시 은평구 가좌로 177,은평구,37.5868307612781,126.920966753447
명동칼국수 대조점,한식,서울특별시 은평구 통일로71길 24,은평구,37.6126106059241,126.9272388817
컴포즈커피 미아사거리역점,카페/디저트,서울특별시 강북구 도봉로 52,강북구,37.613699372646,127.03052852605
스푼앤포크 타파스,아시안/양식,서울특별시 도봉구 삼양로154길 11,도봉구,37.6556296845275,127.013891634682
훈커피,카페/디저트,서울특별시 동대문구 한천로58길 47,동대문구,37.6007507501532,127.068769452719
모두의죽 건대점,한식,서울특별시 광진구 광나루로 380,광진구,37.5476159822886,127.071882907152
맘스피자,피자,서울특별시 성동구 사근동길 4,성동구,37.559965021388,127.041579911542
행복은간장밥 한양대점,한식,서울특별시 성동구 마조로 30,성동구,37.5602929272489,127.041485814257
다두푸드,한식,서울특별시 노원구 동일로173가길 115,노원구,37.6233418210089,127.071880999099
이음 미앤미,한식,서울특별시 종로구 새문안로5길 37,종로구,37.5736488068784,126.974213175414
주식회사 명동 마카오도우라오훠궈,중식,서울특별시 중구 명동길 55,중구,37.5641417024991,126.985394525951
찜빠르,찜탕,서울특별시 중구 퇴계로37길 21-1,중구,37.5622137541823,126.993504054024
미니무드(mini mood),아시안/양식,서울특별시 용산구 후암로28마길 17,용산구,37.5499880187857,126.980380792359
다이닝룸 뒨뉘,아시안/양식,서울특별시 종로구 율곡로 82,종로구,37.577176351699,126.988166778448
종로 셋째집,한식,서울특별시 종로구 종로14길 30,종로구,37.5686791868649,126.986740188392
쿠넷다이닝,아시안/양식,서울특별시 종로구 율곡로 82,종로구,37.577176351699,126.988166778448
치타,돈까스/일식,서울특별시 도봉구 도봉로110길 49,도봉구,37.6463457722506,127.036337520475
왕언니네,한식,서울특별시 동대문구 고산자로36길 3,동대문구,37.5790377655561,127.039142935818
리잉 디저트(LIING DESSERT),카페/디저트,서울특별시 성북구 오패산로 20,성북구,37.6040355105561,127.037790385644
긴자료코건대점,돈까스/일식,서울특별시 광진구 능동로 133-1,광진구,37.542908597891,127.071775756282
미식가의주방,한식,서울특별시 광진구 군자로 43,광진구,37.5471665537169,127.070101890144
양가,중식,서울특별시 광진구 구의로 15,광진구,37.539335205636,127.089259278361
은행골(시청점),돈까스/일식,서울특별시 중구 세종대로 70-1,중구,37.5624296738431,126.976694412362
파스타집이야,아시안/양식,서울특별시 서대문구 수색로 56,서대문구,37.5708392186912,126.912313925866
신참떡볶이(노원점),분식,서울특별시 노원구 동일로218길 17,노원구,37.6538758836589,127.061772133025
현대옥 중계은행사거리점,한식,서울특별시 노원구 한글비석로 231,노원구,37.6482167668096,127.07631718429
정림,한식,서울특별시 용산구 백범로87길 48-11,용산구,37.539208147067,126.969541019514
낭만 해장국,찜탕,서울특별시 종로구 자하문로15길 26-2,종로구,37.5807206803717,126.969545512936
오&삼,한식,서울특별시 은평구 은평로21길 61,은평구,37.6031454261474,126.927653407265
짱꼬집,한식,서울특별시 은평구 연서로29길 20,은평구,37.6193756876504,126.918308299502
소문난전집,한식,서울특별시 중랑구 면목로44길 44,중랑구,37.5809416735209,127.090945177939
카페핫플,카페/디저트,서울특별시 중랑구 용마산로90길 19,중랑구,37.587631566731,127.097248574928
1키로 탕수육,찜탕,서울특별시 성북구 삼선교로 20-1,성북구,37.5875087148142,127.008176205106
포아이니베트남쌀국수광장점,아시안/양식,서울특별시 광진구 광장로 65-1,광진구,37.5475569706371,127.104457489214
금도리 곱도리,한식,서울특별시 동대문구 고산자로 482,동대문구,37.5826101307154,127.038824069558
더 잇다카페,카페/디저트,서울특별시 동대문구 경희대로 26,동대문구,37.5939491407769,127.054890960564
지티에스버거 성수,패스트푸드,서울특별시 성동구 뚝섬로17가길 48,성동구,37.5407390448535,127.059523711627
청년피자 행당점,피자,서울특별시 성동구 무학봉길 54-1,성동구,37.5604619579643,127.02875101521
남산문바,한식,서울특별시 중구 장충단로 60,중구,37.5500710078051,127.000497474349
우연정,한식,서울특별시 중구 퇴계로28길 8-5,중구,37.5604298028879,126.99108417502
정림회관,한식,서울특별시 중구 명동8가길 32,중구,37.561676746103,126.986840464439
최고집,한식,서울특별시 중구 명동8길 21-7,중구,37.5629157785479,126.985167943232
깨비뚝닭 닭강정,치킨,서울특별시 서대문구 인왕시장길 16,서대문구,37.5910571478055,126.942853525448
신풍미흑염소,한식,서울특별시 서대문구 응암로 145,서대문구,37.5853376126155,126.914969106747
퀸즈도그(QUEENS DOG),아시안/양식,서울특별시 서대문구 연세로4길 61,서대문구,37.5585661705571,126.939533144555
에스알아이 서울양평해장국,찜탕,서울특별시 은평구 응암로 263,은평구,37.5954686177993,126.91838732211
고고밥,한식,서울특별시 용산구 한강대로 95,용산구,37.5288173852679,126.966653789116
켈리 토스트 카페,카페/디저트,서울특별시 동대문구 한천로46길 42,동대문구,37.5814628804522,127.070706551458
오토김밥 왕십리뉴타운점,도시락,서울특별시 성동구 왕십리로 410,성동구,37.566590498762,127.02408246322
와이즈오렌지,아시안/양식,서울특별시 성동구 독서당로39길 42,성동구,37.5408436785777,127.010513790795
제주일품순두부,한식,서울특별시 중구 명동10길 16-1,중구,37.5630678689105,126.985185117182
금덕푸드(올래분식),분식,서울특별시 서대문구 신촌로 83,서대문구,37.5560830579515,126.935844876509
궁,한식,서울특별시 노원구 노원로 421,노원구,37.6542241559339,127.06697746423
짜글이 잘하는집,한식,서울특별시 노원구 상계로12길 68,노원구,37.6554668710187,127.070549223719
초록대문 수락산점,분식,서울특별시 노원구 동일로 1700,노원구,37.6801886481455,127.055825744964
cafe eunoia (카페 유노이아),카페/디저트,서울특별시 은평구 갈현로9길 18,은평구,37.605066506036,126.90855140123
시골밥상,한식,서울특별시 은평구 진흥로 190-1,은평구,37.6082904038272,126.930750207069
두번먹는명인김치찜,찜탕,서울특별시 도봉구 덕릉로60길 58,도봉구,37.6376705152102,127.040602361919
김가네 장위뉴타운점,도시락,서울특별시 성북구 돌곶이로40길 46,성북구,37.6198223851288,127.049660439134
원조한방삼계탕,찜탕,서울특별시 성북구 고려대로1길 92,성북구,37.5891241923566,127.017359214659
리앤리푸드,돈까스/일식,서울특별시 광진구 능동로19길 9,광진구,37.5469273581744,127.073188004368
명월숯불양꼬치,한식,서울특별시 광진구 자양로 263,광진구,37.5498487908584,127.090197502821
프랭크버거군자역점,패스트푸드,서울특별시 광진구 천호대로 530,광진구,37.5577008537545,127.077023348242
더원간장게장,한식,서울특별시 성동구 용답중앙11길 16-1,성동구,37.5661979006198,127.052314090469
랍스터바 신세계백화점 본점,아시안/양식,서울특별시 중구 소공로 63,중구,37.560919019936,126.980979034083
샤오바오 우육면 롯데백화점 본점,중식,서울특별시 중구 남대문로 81,중구,37.5647299033135,126.981730421825
최강달인 춘천닭갈비 명동점,한식,서울특별시 중구 명동8길 8-25,중구,37.5628279631947,126.984030343015
속초킹김밥&도시락,도시락,서울특별시 노원구 한글비석로 383,노원구,37.6591119674807,127.073074956682
우리집김밥,도시락,서울특별시 노원구 중계로 225,노원구,37.6503840349218,127.074984978156
명인만두,한식,서울특별시 은평구 응암로4길 22,은평구,37.5867972937404,126.917742147878
부어카페,카페/디저트,서울특별시 강북구 4.19로8길 2,강북구,37.6472452250592,127.009339103002
빽가네족발,족발/보쌈,서울특별시 성북구 보국문로 166,성북구,37.6171196504392,127.003036682061
이토,돈까스/일식,서울특별시 광진구 아차산로33길 22,광진구,37.5412224148897,127.070365965299
장어시대,한식,서울특별시 광진구 뚝섬로 503,광진구,37.5360763405665,127.066018887044
카토카츠,돈까스/일식,서울특별시 광진구 능동로17길 6,광진구,37.5462065990302,127.073123590984
카페 헤스트(cafe Hest),카페/디저트,서울특별시 광진구 천호대로134길 2,광진구,37.5491644616162,127.090695504324
프랑켄프라이즈,분식,서울특별시 광진구 뚝섬로40길 33,광진구,37.5323735961804,127.072606051732
두근두근 튀김꼬치,분식,서울특별시 동대문구 안암로22길 19 (제기동),동대문구,37.587897115252,127.035824382115
와떠마라탕 회기점,찜탕,서울특별시 동대문구 회기로 126,동대문구,37.5913261614262,127.050476665622
덮담 신당점,한식,서울특별시 중구 다산로29길 7,중구,37.5608334602491,127.013539790279
충무쌀롱,한식,서울특별시 중구 퇴계로27길 42,중구,37.563178944345,126.991358773904
개나리부두,한식,서울특별시 용산구 한강대로52길 29-9,용산구,37.5317206223562,126.973134143648
크로붕,아시안/양식,서울특별시 용산구 청파로71길 13,용산구,37.5491991569363,126.968882414396
귀한족발 가재울점,족발/보쌈,서울특별시 서대문구 가재울미래로 2,서대문구,37.5744203632344,126.917897379411
오리재,아시안/양식,서울특별시 서대문구 간호대로3길 36-6,서대문구,37.5954406057511,126.947403534502
마루호프,치킨,서울특별시 노원구 상계로1길 62-34,노원구,37.6587698532376,127.062086485148
달콤담다,한식,서울특별시 은평구 진흥로12길 17-1,은평구,37.6070914010924,126.926921831181
스시도현,돈까스/일식,서울특별시 강북구 도봉로96다길 22,강북구,37.6400925337601,127.033134270008
청운수산,돈까스/일식,서울특별시 강북구 도봉로10다길 20,강북구,37.6146858558325,127.031925463021
빨래골 윤수산,돈까스/일식,서울특별시 도봉구 덕릉로59길 6,도봉구,37.6403664037678,127.039115153473
바다수퍼해물천하조개구이찜구의점,찜탕,서울특별시 광진구 아차산로 339,광진구,37.5374610591126,127.080581224819
카페청량,카페/디저트,서울특별시 동대문구 홍릉로3길 18 (제기동),동대문구,37.5818416365279,127.04357625133
영미식당,한식,서울특별시 중구 퇴계로83길 10-14,중구,37.5660239725568,127.01903901589
라인드한남,아시안/양식,서울특별시 용산구 대사관로31길 16,용산구,37.533998823982,127.005997148647
핑,한식,서울특별시 용산구 보광로59길 7,용산구,37.5338262592193,126.9935643319
싸다김밥 종로관철점,도시락,서울특별시 종로구 삼일대로 391,종로구,37.5694808730925,126.987383331119
(주)연남방앗간,아시안/양식,서울특별시 중구 통일로 1,중구,37.5560581817344,126.972115894161
오아시스,한식,서울특별시 서대문구 이화여대5길 15,서대문구,37.5582872046756,126.944833931527
부리나케밥,아시안/양식,서울특별시 노원구 한글비석로 383,노원구,37.6591119674807,127.073074956682
종로전집,한식,서울특별시 노원구 광운로10길 3,노원구,37.6209010072217,127.059309254353
토담옛날통닭,치킨,서울특별시 노원구 동일로228길 35,노원구,37.6679405988859,127.059064100243
cafe79(카페79),카페/디저트,서울특별시 은평구 갈현로33길 13,은평구,37.6206970477867,126.914827812426
두촌가마솥밥&명인만두,한식,서울특별시 은평구 은평로 111,은평구,37.6008254685415,126.920513478627
먼치오케이 샐러드클럽 은평점,한식,서울특별시 은평구 갈현로11길 3,은평구,37.605343193015,126.910066558928
쌀국수 밴드,아시안/양식,서울특별시 은평구 역말로 19,은평구,37.6058060306003,126.912583653032
토리아에즈 구파발점,한식,서울특별시 은평구 진관1로 21-39,은평구,37.6338625622068,126.918572501207
늘조은찬,한식,서울특별시 강북구 삼양로19길 25,강북구,37.6156943247238,127.021139026425
로로다방,카페/디저트,서울특별시 강북구 수유로4길 35,강북구,37.6319449318919,127.020386969677
고돼지 석관점,한식,서울특별시 성북구 돌곶이로9길 13,성북구,37.6065905513361,127.0603046895
체르니,치킨,서울특별시 중랑구 용마산로86길 9-27,중랑구,37.5873662061942,127.096060534833
진성식당,한식,서울특별시 동대문구 장한로24길 30-2,동대문구,37.57029121387,127.07243626126
만만스시,돈까스/일식,서울특별시 성동구 왕십리로 382,성동구,37.5651102845783,127.028019796271
서울숲 포도피자,피자,서울특별시 성동구 서울숲4길 22-7,성동구,37.54698256094,127.043284705398
(주)키친엑스 용산4호점,한식,서울특별시 용산구 한강대로 329,용산구,37.5476709088343,126.971482484737
썬워터,한식,서울특별시 용산구 후암로 3,용산구,37.5461987640983,126.97824205488
봉이밥 순화점,한식,서울특별시 중구 서소문로9길 28,중구,37.5637084894676,126.970042986983
오늘하루(ONURARU),아시안/양식,서울특별시 중구 퇴계로41길 22,중구,37.5627623089127,126.996217716126
연희가맥,한식,서울특별시 서대문구 연희로 93-7,서대문구,37.5665932320631,126.930060673417
소풍,한식,서울특별시 노원구 노원로28길 9,노원구,37.6530278761718,127.068468944165
IAM꼬마김밥(아이엠꼬마김밥),도시락,서울특별시 은평구 진관3로 11,은평구,37.6394630545503,126.918268068589
춘삼,한식,서울특별시 은평구 갈현로29길 50,은평구,37.6221604212259,126.911628407105
육수명가,한식,서울특별시 강북구 삼양로47길 3 (미아동),강북구,37.6232494145601,127.01879295274
스시화 도봉,돈까스/일식,서울특별시 도봉구 해등로25길 41,도봉구,37.6558809051642,127.034124384435
낙지마당,한식,서울특별시 성북구 장월로 74,성북구,37.6123052776892,127.048970560181
돈까스짱자양전통시장점,한식,서울특별시 광진구 자양로15길 83,광진구,37.5347944094885,127.07918840463
브라더한정식도시락세종대점,한식,서울특별시 광진구 군자로 76,광진구,37.5499539254444,127.071085415083
장칼장 구의역점,한식,서울특별시 광진구 자양로 112,광진구,37.5376694764699,127.083667631804
야키토리쿠이신보 삼각지점,돈까스/일식,서울특별시 용산구 한강대로52길 29-6,용산구,37.5317079656479,126.97294713194
재동맥주,야식,서울특별시 종로구 북촌로4길 6,종로구,37.5790857147112,126.985527005478
미드템포,아시안/양식,서울특별시 중구 동호로25길 5,중구,37.5589003083629,127.002587715082
란주우육면,중식,서울특별시 서대문구 연세로7안길 5,서대문구,37.5579325469635,126.936199459198
명지샤브,한식,서울특별시 서대문구 증가로10길 63,서대문구,37.5796913961199,126.925277979388
보성집,한식,서울특별시 서대문구 경기대로 26-22,서대문구,37.5615351733222,126.962689707047
BBQ 하계스마트점,치킨,서울특별시 노원구 공릉로59가길 28,노원구,37.6346326372159,127.070959129975
모스버거&빨라쪼 아이스크림,패스트푸드,서울특별시 노원구 노해로81길 16,노원구,37.6556388872669,127.062868428662
"닭찌, 흔한 닭볶음탕에도 명품은 있다.",찜탕,서울특별시 강북구 오패산로 202,강북구,37.6205997859449,127.032821481622
리트리트커피로스터즈,카페/디저트,서울특별시 강북구 한천로139길 11,강북구,37.6395671015453,127.026243759698
순자네포차,야식,서울특별시 중랑구 봉우재로65길 49,중랑구,37.5973206482231,127.097579039033
롯데노원 장상궁 남촌칼제비,한식,서울특별시 노원구 동일로 1414,노원구,37.6552787315469,127.061391730931
쌍둥이네,한식,서울특별시 노원구 월계로45가길 94,노원구,37.6317613748101,127.052338603781
하루노미즈,한식,서울특별시 은평구 연서로5길 3,은평구,37.6039962485329,126.915226913507
할머니 분식,분식,서울특별시 은평구 통일로 850,은평구,37.6193203344525,126.921445035076
포레스트커피&펍,카페/디저트,서울특별시 강북구 삼양로181길 196,강북구,37.6715619281318,127.006378967841
스시 미고로,돈까스/일식,서울특별시 도봉구 방학로 137,도봉구,37.662605231652,127.037014012845
거기시켜 덮밥&간식(노원점),돈까스/일식,서울특별시 노원구 노해로 455,노원구,37.6541666670975,127.058519890434
쭈꾸미 부대,한식,서울특별시 중랑구 사가정로50길 76,중랑구,37.5776835187822,127.084619511408
연어세상참치동네,회,서울특별시 성북구 보문로40길 29,성북구,37.5921275990755,127.015109375035
퍼즐바,아시안/양식,서울특별시 광진구 광나루로 383,광진구,37.5480732259171,127.072493969391
수제비집,한식,서울특별시 동대문구 홍릉로17길 10,동대문구,37.5862391923435,127.04262154003
정선 육회&연어,회,서울특별시 동대문구 답십리로65길 80,동대문구,37.5760770469136,127.069886725508
아나바,돈까스/일식,서울특별시 용산구 한강대로 168-2,용산구,37.5336967726087,126.972674084438
나우,아시안/양식,서울특별시 용산구 원효로89길 23,용산구,37.5407357607493,126.967725341072
다람,한식,서울특별시 중구 다동길 46,중구,37.5678614943581,126.981726148037
전家곱창,한식,서울특별시 중구 을지로3길 30-5,중구,37.5676791400697,126.981773054016
호랑이쌀국수 시청점,아시안/양식,서울특별시 중구 서소문로 89-20,중구,37.5632510909133,126.972031493823
삼겹포차,야식,서울특별시 동대문구 답십리로 271-6,동대문구,37.57295102402,127.070831173533
용두홍어,한식,서울특별시 동대문구 경동시장로8길 47 (청량리동),동대문구,37.5811816827023,127.043266117847
팡팡마차,분식,서울특별시 동대문구 한천로39길 27,동대문구,37.5782250576743,127.066701593769
이알앤(ERN),아시안/양식,서울특별시 성동구 서울숲2길 8-7,성동구,37.5472091943403,127.039598846601
꼴목,치킨,서울특별시 광진구 아차산로51길 33,광진구,37.5384670141018,127.084842882461
짱마약꼬마김밥,도시락,서울특별시 은평구 연서로34길 3,은평구,37.6214512112854,126.926835169115
코다리밥상,한식,서울특별시 은평구 통일로87길 6-7,은평구,37.6237504362873,126.918968673724
라홍방마라탕 덕성여대점,찜탕,서울특별시 강북구 4.19로 2,강북구,37.6483433423436,127.013922798622
감성쭈꾸미,한식,서울특별시 노원구 수락산로 212,노원구,37.6708275957536,127.055377806803
해피퍼피하우스,아시안/양식,서울특별시 용산구 녹사평대로 168-11,용산구,37.533404579256,126.989608765998
솔솥 서촌점,한식,서울특별시 종로구 자하문로 23,종로구,37.5780784574885,126.971476891882
디(D)카페,카페/디저트,서울특별시 중랑구 용마산로 421-1,중랑구,37.5892336409489,127.096455710436
계혁명,치킨,서울특별시 동대문구 망우로16길 26,동대문구,37.5890045031842,127.061111599459
커피노아,카페/디저트,서울특별시 동대문구 장한로28가길 70,동대문구,37.5761393365097,127.07296289353
비에이치씨 구의점,치킨,서울특별시 광진구 구의로 40,광진구,37.5413942050559,127.090043953218
타스더안주셀렉트샵,한식,서울특별시 광진구 광나루로24길 20,광진구,37.5454553064569,127.076318784936
이터스 신촌점,아시안/양식,서울특별시 서대문구 연세로 13,서대문구,37.5567378385686,126.936559696179
파라삐리포,한식,서울특별시 서대문구 연세로7안길 16-6,서대문구,37.558358918592,126.936069507143
커피노마드노원,카페/디저트,서울특별시 노원구 한글비석로33길 16-1,노원구,37.6612240465616,127.069499534659
야키토리 혼바,돈까스/일식,서울특별시 용산구 후암로 79,용산구,37.5528555338443,126.976428956122
모스살롱,아시안/양식,서울특별시 용산구 보광로60길 17,용산구,37.5341669142152,126.995171473281
인사타이,아시안/양식,서울특별시 종로구 인사동길 49,종로구,37.5744668688197,126.983552182559
미식해장,아시안/양식,서울특별시 중구 동호로25길 29,중구,37.5589908790573,127.001363464019
동원 만원 족발,족발/보쌈,서울특별시 중랑구 상봉로11길 27,중랑구,37.589967053526,127.092048898771
신머이 쌀국수 사가정역점,아시안/양식,서울특별시 중랑구 면목로 293,중랑구,37.5789582952815,127.0861690858
달콤한커피 길음점,카페/디저트,서울특별시 성북구 삼양로 66,성북구,37.609002278777,127.023271412495
뽕스닭강정,치킨,서울특별시 성북구 돌곶이로22나길 26,성북구,37.6094372035106,127.060878020051
모리,돈까스/일식,서울특별시 광진구 능동로38길 27,광진구,37.5573428620789,127.081490723332
원명동 칼국수,한식,서울특별시 광진구 뚝섬로 645,광진구,37.5317138271823,127.081397776835
버거운버거 수유점,패스트푸드,서울특별시 강북구 삼양로 528,강북구,37.6500763265905,127.013640396717
자매식당,한식,서울특별시 노원구 월계로 370,노원구,37.6309766775099,127.06102564028
"카페,아지트",카페/디저트,서울특별시 노원구 월계로 372,노원구,37.6292472102426,127.059664124595
태봉김밥,도시락,서울특별시 노원구 공릉로 95,노원구,37.6188459464331,127.078310936686
VIP 큐룸,한식,서울특별시 중구 다산로 245,중구,37.5650227116885,127.015884329104
김밥킹,도시락,서울특별시 중구 청계천로 100,중구,37.5674727196383,126.98811318937
카페227,카페/디저트,서울특별시 성북구 돌곶이로22길 7,성북구,37.6102420671878,127.058361327835
도야짬뽕 장안직영점,중식,서울특별시 동대문구 장한로 179,동대문구,37.5764749815622,127.071746605254
섭국,한식,서울특별시 서대문구 명지대3길 18,서대문구,37.5822173566793,126.922796864191
NW푸드,한식,서울특별시 노원구 노해로 455,노원구,37.6541666670975,127.058519890434
소소떡볶이 중계점,분식,서울특별시 노원구 상계로12길 56,노원구,37.655810499217,127.070106559488
사천마라탕,찜탕,서울특별시 용산구 서빙고로24길 4,용산구,37.5239431590067,126.968682040826
러빙핸드,아시안/양식,서울특별시 종로구 옥인길 18,종로구,37.5806661015476,126.967595466794
상감치킨,치킨,서울특별시 종로구 창신8길 8,종로구,37.5770569195858,127.010458088691
언더바(underbar),아시안/양식,서울특별시 종로구 삼일대로15길 21,종로구,37.5687782396669,126.986244496386
카페 뮬(CAFE MULE) 보문점,카페/디저트,서울특별시 성북구 보문로 78,성북구,37.5822809544965,127.021306528685
코코넛족발닭발 휘경점,족발/보쌈,서울특별시 동대문구 한천로 279,동대문구,37.5858124759575,127.067226568076
김선생 불닭발 성동점,한식,서울특별시 성동구 무학로6길 50,성동구,37.5645961982208,127.035023853624
수지상회 건대점,한식,서울특별시 광진구 아차산로33길 30,광진구,37.5415428090845,127.070519135184
전설낙곱새 용마산점,한식,서울특별시 광진구 답십리로78길 3,광진구,37.5713436856823,127.081525898355
죽이요 용마산점,한식,서울특별시 광진구 답십리로78길 3,광진구,37.5713436856823,127.081525898355
카페 몬스터레빗,카페/디저트,서울특별시 광진구 뚝섬로 673,광진구,37.5320429453752,127.084122722726
나정분식,분식,서울특별시 은평구 증산서길 63-6,은평구,37.5825549051696,126.905278067048
마무,한식,서울특별시 은평구 은평로 245,은평구,37.6011049837261,126.935146145667
춘리마라탕(미아롯데점),찜탕,서울특별시 강북구 도봉로10길 40 (미아동),강북구,37.614456062409,127.031067626172
착한파스타 중계점,아시안/양식,서울특별시 노원구 노원로 330,노원구,37.6467905319279,127.070940893709
수정빵,카페/디저트,서울특별시 용산구 효창원로12길 42,용산구,37.5332331589601,126.952588322766
따띠삼겹 면목점,한식,서울특별시 중랑구 용마산로 388,중랑구,37.5862588370822,127.09534344848
달빛 그리고 연어육회,회,서울특별시 성북구 북악산로 913,성북구,37.5965594834138,127.022954666928
우마이 타코야끼,한식,서울특별시 성북구 북악산로 913,성북구,37.5965594834138,127.022954666928
피자헛 동덕여대본점,피자,서울특별시 성북구 화랑로 104,성북구,37.6033505659021,127.043330480665
김군네초밥가게,한식,서울특별시 강북구 도봉로98길 40,강북구,37.6410488401742,127.031820039048
맥주아비 장안사거리점,야식,서울특별시 동대문구 장한로24길 46,동대문구,37.5699029959844,127.073278284
오라김분식,분식,서울특별시 동대문구 고산자로 417 (용두동),동대문구,37.5769435164375,127.037973215255
아는커피,카페/디저트,서울특별시 성동구 광나루로4길 8-1,성동구,37.5495845815449,127.05374600324
플래드 카페,카페/디저트,서울특별시 성동구 서울숲2길 12-7,성동구,37.5470895391629,127.039874103325
순두부랑 돈까스,한식,서울특별시 서대문구 통일로 348,서대문구,37.5812594760103,126.952833216748
구여사컵밥,한식,서울특별시 은평구 통일로 905,은평구,37.6237703310391,126.919602322714
은평소댕,한식,서울특별시 은평구 연서로3가길 13,은평구,37.6035702994642,126.914655956589
홍능반점,중식,서울특별시 강북구 4.19로 36 (수유동),강북구,37.6474627291113,127.010340022472
구도로통닭 종각점,치킨,서울특별시 종로구 우정국로2길 16,종로구,37.5694482841057,126.983901472599
치골냉맥,치킨,서울특별시 중랑구 답십리로77길 11,중랑구,37.5721271498692,127.081454758083
김사부의 곱창명가 성동점,한식,서울특별시 성동구 무학로6길 50,성동구,37.5645961982208,127.035023853624
수상한발효실 수국,한식,서울특별시 광진구 아차산로38길 17,광진구,37.5377149438183,127.074857302072
진미함바식당,한식,서울특별시 광진구 아차산로 403-6,광진구,37.537876883982,127.087403177727
김가네김밥 서울역KDB점,도시락,서울특별시 용산구 한강대로 372,용산구,37.5516794257654,126.972905059299
브라이틀링카페&와인라운지,카페/디저트,서울특별시 용산구 녹사평대로 132,용산구,37.5306658431999,126.991175512553
유원(원테이블 중식당),중식,서울특별시 용산구 후암로 32-3,용산구,37.548822762458,126.977861855496
한남동 강가네 빈대떡,한식,서울특별시 용산구 대사관로30길 7,용산구,37.5329001581896,127.00569746786
카페 인 더 포레스트,카페/디저트,서울특별시 서대문구 연희로 147,서대문구,37.570761900687,126.933709513598
C&K(씨앤케이),한식,서울특별시 은평구 응암로 172-1,은평구,37.5871882290906,126.916834474855
분식명가 쌍문동 꼬마김밥,분식,서울특별시 도봉구 도봉로113길 38,도봉구,37.6485613480828,127.032101770911
스탠퍼독,아시안/양식,서울특별시 도봉구 우이천로 296,도봉구,37.6442114888136,127.029694032485
탐나는 피자(쌍문점),피자,서울특별시 도봉구 도봉로109길 69,도봉구,37.6474411063256,127.029530108142
180도(180°),치킨,서울특별시 노원구 한글비석로 57,노원구,37.6366235844053,127.068915344466
노란상소갈비 안국역점,한식,서울특별시 종로구 계동길 5,종로구,37.5773850992308,126.986376383784
디디스 본점,아시안/양식,서울특별시 종로구 삼봉로 81,종로구,37.5725639351805,126.981506298154
마이클바이해비치(Michael's by HAEVICHI),아시안/양식,서울특별시 중구 명동8나길 38,중구,37.5617094550686,126.982674651463
스시메르,돈까스/일식,서울특별시 중구 명동8나길 38,중구,37.5617094550686,126.982674651463
중심,중식,서울특별시 중구 명동8나길 38,중구,37.5617094550686,126.982674651463
가온,분식,서울특별시 중랑구 양원역로10길 3,중랑구,37.6066433737249,127.106339503555
개화가배,카페/디저트,서울특별시 성북구 고려대로7길 32,성북구,37.5873860856007,127.020722287938
호랑이흥취,한식,서울특별시 강북구 덕릉로41길 100,강북구,37.6384644991508,127.027719773228
씨즐(SIZZL),한식,서울특별시 광진구 광나루로 383,광진구,37.5480732259171,127.072493969391
퍼즐 커피앤하이볼,아시안/양식,서울특별시 광진구 광나루로 383,광진구,37.5480732259171,127.072493969391
한해,회,서울특별시 광진구 동일로30길 49,광진구,37.547578165959,127.070041168432
청도미나리버섯매운탕,찜탕,서울특별시 용산구 한강대로38가길 7-18,용산구,37.5298110223491,126.970063450171
한강#(한강Sharp),아시안/양식,서울특별시 용산구 한강대로21길 17,용산구,37.5268138996217,126.964132558901
여우애김밥북가좌점,도시락,서울특별시 서대문구 거북골로 178-1,서대문구,37.577230410962,126.910734562569
동고집,한식,서울특별시 도봉구 도봉로152길 32,도봉구,37.6693291359689,127.045576113116
수유리혼밥왕 외대점,한식,서울특별시 동대문구 이문로28길 16,동대문구,37.5954973335287,127.060562855075
스시도쿠더성수,돈까스/일식,서울특별시 성동구 서울숲6길 13,성동구,37.5477165045093,127.043065822487
스시오가,돈까스/일식,서울특별시 광진구 능동로 69,광진구,37.5378412310188,127.068994278343
엄마밥상,한식,서울특별시 광진구 면목로 132-1,광진구,37.5651060129209,127.080989380602
교촌필방,한식,서울특별시 용산구 보광로 127,용산구,37.5340837736296,126.993719313035
파친코,돈까스/일식,서울특별시 용산구 한강대로40길 33,용산구,37.5302521644477,126.971197681278
제레미20 광화문점,아시안/양식,서울특별시 종로구 종로1길 50,종로구,37.5747244659804,126.979022440109
카페 코스타,카페/디저트,서울특별시 종로구 홍지문2길 16,종로구,37.6016620213663,126.9557028345
엠브로 키친 도봉점,한식,서울특별시 도봉구 도봉로187길 63,도봉구,37.6861267241667,127.042413004735
새떡따오,한식,서울특별시 노원구 섬밭로 258,노원구,37.6391097783726,127.064915087375
수다미찬 김밥,도시락,서울특별시 노원구 섬밭로 258,노원구,37.6391097783726,127.064915087375
육장화,한식,서울특별시 노원구 공릉로 98,노원구,37.6191983201855,127.078450401706
꿀돼지 식당,한식,서울특별시 성북구 화랑로 119-10,성북구,37.6050048891598,127.044500050354
상현국수,한식,서울특별시 성북구 삼양로 82,성북구,37.6106392290103,127.022639269291
오가네,한식,서울특별시 성북구 한천로73길 33,성북구,37.6095023906811,127.06165783523
올카커피,카페/디저트,서울특별시 성북구 삼양로4길 4,성북구,37.6056276454152,127.024490962513
향원,중식,서울특별시 성북구 오패산로 51,성북구,37.6067496959054,127.036508171518
제주생고기,한식,서울특별시 중구 청계천로 400,중구,37.5708105464699,127.021463886656
투썸플레이스 순화타워점,카페/디저트,서울특별시 중구 세종대로7길 43,중구,37.5610649662767,126.972258222014
우이락 광장시장점,한식,서울특별시 종로구 창경궁로 88,종로구,37.5701125140082,126.999707163125
공주네국수 밀키트전문점,한식,서울특별시 은평구 서오릉로21길 33-13,은평구,37.6135346740255,126.907105105699
영덕막회,한식,서울특별시 은평구 갈현로 75,은평구,37.60454318711,126.910280880648
타코짱,돈까스/일식,서울특별시 노원구 동일로204가길 34,노원구,37.6407495352012,127.068172151465
해물명가 노원점,한식,서울특별시 노원구 덕릉로 459-37,노원구,37.6468005039827,127.059592952406
맛있는반찬&해장국,찜탕,서울특별시 중랑구 상봉로11길 35,중랑구,37.5898004436528,127.091606775168
인생아구찜 성북점,찜탕,서울특별시 성북구 보문로17길 29,성북구,37.5812303145062,127.01970053818
종암수제갈비,한식,서울특별시 성북구 종암로 85,성북구,37.5978863185777,127.034628399317
다정한 마음,한식,서울특별시 서대문구 가좌로 36,서대문구,37.5776723008202,126.931883585796
마음밭 오가닉 카페(organic cafe),카페/디저트,서울특별시 서대문구 연희맛로 24,서대문구,37.5668658680696,126.930356525151
인쌩맥주 명지대점,야식,서울특별시 서대문구 명지대길 54,서대문구,37.5824683532455,126.923875649768
후니족발,족발/보쌈,서울특별시 강북구 도봉로96길 100,강북구,37.6379454003248,127.033121873337
길동우동,돈까스/일식,서울특별시 동대문구 경희대로 23,동대문구,37.5937762050989,127.050741696591
천희공관,중식,서울특별시 동대문구 회기로 160-1,동대문구,37.5906530265747,127.053750045925
번아웃 버거앤펍,패스트푸드,서울특별시 성동구 상원1길 35-22,성동구,37.5461842779243,127.047048263101
당주당냉면(구의점),한식,서울특별시 광진구 구의로 50,광진구,37.5422809985707,127.090240888277
리파인건대,한식,서울특별시 광진구 능동로13길 36,광진구,37.5436079641311,127.07041131957
이드(eid),한식,서울특별시 용산구 우사단로10길 15,용산구,37.5332644259282,126.996417879834
더쌍화커피(서울시점),카페/디저트,서울특별시 종로구 종로35가길 11,종로구,37.5719588381553,127.00450099237
아비꼬 광화문점,돈까스/일식,서울특별시 종로구 종로 34,종로구,37.5698436778123,126.98111033501
홍가네밥상,한식,서울특별시 종로구 종로 183,종로구,37.5714476873524,126.998320034926
꽈배기 도넛,한식,서울특별시 은평구 연서로34길 42,은평구,37.6220524462375,126.930880282269
삼국지마라탕,찜탕,서울특별시 은평구 응암로 286,은평구,37.5969833398303,126.920063262195
크로플럽,한식,서울특별시 은평구 연서로33길 7,은평구,37.6212705304969,126.924353986946
사랑 커피숍,카페/디저트,서울특별시 서대문구 응암로 138,서대문구,37.584445623867,126.914961063957
송준옥(宋寯屋),한식,서울특별시 서대문구 연세로7안길 34-4,서대문구,37.5582737615065,126.935055395291
한술식당 신촌점,한식,서울특별시 서대문구 연세로4길 40,서대문구,37.5578586447476,126.938886004379
커피살롱,카페/디저트,서울특별시 중구 세종대로21길 67,중구,37.5693036252323,126.975712913498
화기,한식,서울특별시 중구 퇴계로 42-2,중구,37.5577156632633,126.977653922122
단발머리언니카페,카페/디저트,서울특별시 강북구 삼양로149길 30,강북구,37.6543494832617,127.011318730743
금별맥주 경희대점,야식,서울특별시 동대문구 경희대로1길 15,동대문구,37.5917077627628,127.051240647783
도모다찌에 꼬치다,돈까스/일식,서울특별시 동대문구 회기로13길 20,동대문구,37.5923963234527,127.051188468262
프랑킨숯불양념구이치킨 건대역점,한식,서울특별시 광진구 자양로32길 26,광진구,37.5442094859338,127.086524329853
브리비트,아시안/양식,서울특별시 성동구 상원6길 5-1,성동구,37.548689942556,127.048855242548
오마카세 오사이초밥 성수점,돈까스/일식,서울특별시 성동구 연무장3길 9-14,성동구,37.5448357596916,127.051562731533
백소정 대학로점,돈까스/일식,서울특별시 종로구 대학로 143,종로구,37.5840325993163,127.001309010548
알케믹스 ALCHEMIX,아시안/양식,서울특별시 종로구 낙산길 4,종로구,37.5803393408552,127.004689313916
더노벰버 라운지(응암점),한식,서울특별시 은평구 응암로13길 2-1,은평구,37.5899526174265,126.91665522005
서광냉삼 연신내본점,한식,서울특별시 은평구 통일로87길 6-10,은평구,37.6237554713217,126.919216178082
친구포차,야식,서울특별시 은평구 갈현로 342,은평구,37.6265920936978,126.919283115914
삼돌 멸치쌈밥,한식,서울특별시 도봉구 도봉산4나길 6-10,도봉구,37.6877997090617,127.042773580288
비올라,아시안/양식,서울특별시 서대문구 연세로4길 53,서대문구,37.5583825953734,126.93927558709
아이앤지커피 아현점,카페/디저트,서울특별시 서대문구 북아현로4길 2,서대문구,37.5592308520712,126.956811090013
충정로 쌀국수,아시안/양식,서울특별시 서대문구 서소문로 21,서대문구,37.5598942603947,126.964085809305
맛고을 푸드,한식,서울특별시 동대문구 사가정로17길 15,동대문구,37.5785548092419,127.060009239271
용용선생 군자점,중식,서울특별시 광진구 능동로36길 30,광진구,37.5557178129746,127.080587072191
온기정,돈까스/일식,서울특별시 용산구 한남대로 91,용산구,37.5365636555465,127.002134363783
부대끼니,한식,서울특별시 성동구 서울숲4길 23,성동구,37.5472317766252,127.043531427164
선우돈까스,한식,서울특별시 종로구 돈화문로5가길 1,종로구,37.5710275098022,126.991230294263
오프커피 종로점,카페/디저트,서울특별시 종로구 삼일대로15길 8,종로구,37.5689228456463,126.987006150496
이자까야 승원 동대문직영점,돈까스/일식,서울특별시 중구 을지로44길 30,중구,37.5648200801553,127.006242745389
라라스시,돈까스/일식,서울특별시 은평구 연서로29길 30,은평구,37.6197658538055,126.91732864694
면부심 파스타,한식,서울특별시 은평구 갈현로33길 24,은평구,37.6219704228009,126.913971706642
우거지 품은 순대국,찜탕,서울특별시 도봉구 도봉산3길 31,도봉구,37.6859584900946,127.043948297296
금쪽,한식,서울특별시 노원구 동일로192가길 9,노원구,37.6264328047477,127.073685368073
홍콩할매 떡볶이,분식,서울특별시 중랑구 면목로35길 24,중랑구,37.5785971446,127.084720055483
가마치통닭 가좌역점,치킨,서울특별시 서대문구 수색로2길 39,서대문구,37.5713138623933,126.915904667901
바른보쌈 명지대점,한식,서울특별시 서대문구 가좌로 55,서대문구,37.5784441669836,126.929705663793
호미스피자 명지대점,피자,서울특별시 서대문구 증가로24라길 38,서대문구,37.5825862288416,126.918908134686
육반상회,한식,서울특별시 동대문구 전농로3길 110,동대문구,37.5726637779885,127.056099133092
카페더스쿱(cafe the scoop),카페/디저트,서울특별시 강북구 도봉로13길 22,강북구,37.6151596749424,127.029183096151
오고고,한식,서울특별시 동대문구 전농로2나길 14,동대문구,37.5672884737086,127.057526857822
오늘포차,야식,서울특별시 동대문구 답십리로66길 115,동대문구,37.5678928793507,127.065612752473
따띠삼겹 숙대점,한식,서울특별시 용산구 청파로47길 62,용산구,37.5449328153648,126.967139299814
이레 피자 하우스,피자,서울특별시 용산구 청파로89길 32-3,용산구,37.5534331192534,126.967186494556
NET VIET 베트남쌀국수,아시안/양식,서울특별시 성동구 용답중앙15길 2,성동구,37.5638055873065,127.053095664605
그리노,아시안/양식,서울특별시 성동구 성수이로 147,성동구,37.5480718056489,127.057567649098
민들레,한식,서울특별시 성동구 마장로 228-12,성동구,37.5658531736713,127.035340352877
족팔계,한식,서울특별시 성동구 용답중앙15길 2,성동구,37.5638055873065,127.053095664605
커피로그리는꿈 협동조합,카페/디저트,서울특별시 성동구 상원6나길 22-11,성동구,37.5476908001764,127.049991185761
오마카세 오사이 대학로점,돈까스/일식,서울특별시 종로구 동숭길 100,종로구,37.5828893484818,127.004283485271
오한수 우육면가 정동점,중식,서울특별시 중구 정동길 17,중구,37.567161887661,126.970642082697
강화통통 생고기,한식,서울특별시 은평구 은평터널로 64,은평구,37.5863964384958,126.900960190772
내셔널 피플,한식,서울특별시 은평구 백련산로14길 7-3,은평구,37.6005570445098,126.927920899146
야호마라탕,찜탕,서울특별시 도봉구 해등로 157,도봉구,37.6567853003321,127.038821522188
외계인피자 쌍문점,피자,서울특별시 도봉구 노해로 137 (쌍문동),도봉구,37.6472417886518,127.025356050261
현카츠,돈까스/일식,서울특별시 도봉구 방학로 159,도봉구,37.6622836380009,127.034447487498
뭉치,한식,서울특별시 노원구 동일로 1657,노원구,37.6763964481782,127.054823776633
오피커피,카페/디저트,서울특별시 노원구 노원로26나길 12,노원구,37.6535805886751,127.070525454617
프랭크버거 광운대점,패스트푸드,서울특별시 노원구 광운로 25,노원구,37.6200684117951,127.05820918242
호시 아카리,돈까스/일식,서울특별시 노원구 석계로 98-1,노원구,37.62350432752,127.061060877189
카페 로룸,카페/디저트,서울특별시 중랑구 면목로78길 50,중랑구,37.5906371252678,127.090058181599
하늬토끼,치킨,서울특별시 성북구 장월로1길 80,성북구,37.6053639846096,127.044124391065
랭삼포차,야식,서울특별시 강북구 덕릉로 120,강북구,37.6347790055813,127.027001482423
"육회란 연어다 금호, 신당점",회,서울특별시 중구 청구로1길 23,중구,37.5585358838305,127.01844745293
백소정,돈까스/일식,서울특별시 서대문구 명물길 27-9,서대문구,37.5585438921311,126.937753551288
송이네 호떡,한식,서울특별시 은평구 응암로4길 22,은평구,37.5867972937404,126.917742147878
쉐프의그릴,한식,서울특별시 노원구 동일로198길 78,노원구,37.6296682850867,127.075758860007
라로커피,카페/디저트,서울특별시 강북구 삼양로 348,강북구,37.6345747242779,127.01761936741
쿄스시,돈까스/일식,서울특별시 동대문구 이문로 88-26,동대문구,37.594768043705,127.059910269191
카페스튜디오 아미,카페/디저트,서울특별시 용산구 한강대로 210,용산구,37.5370252902263,126.974467018235
네번째집,한식,서울특별시 성동구 왕십리로4길 24-3,성동구,37.5468668936878,127.046545694247
모르므로,아시안/양식,서울특별시 성동구 연무장길 17,성동구,37.5437359571182,127.051454476206
성수닭꼬치,한식,서울특별시 성동구 연무장길 100-15,성동구,37.54069851231,127.060033085416
수비드 김치찜,찜탕,서울특별시 성동구 마장로 137,성동구,37.5678250213491,127.025053595952
세드릭 커피 컴퍼니,아시안/양식,서울특별시 용산구 한남대로42가길 10,용산구,37.5432890683143,127.002708703853
셰프스테이블컴퍼니,아시안/양식,서울특별시 종로구 종로 33,종로구,37.5709617749066,126.981437983842
우소츠케,돈까스/일식,서울특별시 용산구 한강대로62나길 14,용산구,37.534305897775,126.974502679788
차차타이,아시안/양식,서울특별시 중구 만리재로 209-3,중구,37.5562039727629,126.968230672454
펠어커피 초코 시청점,카페/디저트,서울특별시 중구 세종대로11길 27,중구,37.5620492313405,126.974321528923
집밥매니아,한식,서울특별시 중랑구 상봉중앙로1길 82,중랑구,37.5999380612864,127.087781703118
한돌참치 마스터점,돈까스/일식,서울특별시 성북구 화랑로11길 26,성북구,37.603300012239,127.042108302625
등촌샤브칼국수(건대화양점),한식,서울특별시 광진구 동일로 174,광진구,37.5475289671174,127.0674170235
은하수,한식,서울특별시 은평구 통일로80길 8,은평구,37.6199268590915,126.921550078765
압구정진주정식,한식,서울특별시 용산구 대사관로30길 11-6,용산구,37.5325338028876,127.005865903555
쓰리오브어스,돈까스/일식,서울특별시 성동구 광나루로4길 14,성동구,37.5492994252138,127.053327204668
깃대봉냉면,한식,서울특별시 중구 청계천로 400,중구,37.5708105464699,127.021463886656
충정로김밥,도시락,서울특별시 중구 서소문로6길 34,중구,37.5595897344199,126.967220804554
벚꽃스시,돈까스/일식,서울특별시 중랑구 중랑역로 192,중랑구,37.6105029917398,127.076220189975
자연분식,분식,서울특별시 중랑구 답십리로77길 12,중랑구,37.5721300725641,127.081658405492
굿스맘,한식,서울특별시 성북구 정릉로 404,성북구,37.6042985240599,127.028796189972
멜랑슈,치킨,서울특별시 성북구 아리랑로2길 5,성북구,37.5933135346141,127.016742401157
올리브쿡,한식,서울특별시 성북구 길음로13길 22,성북구,37.6094417730405,127.019323702394
백억커피 장안점,카페/디저트,서울특별시 동대문구 한천로18길 9,동대문구,37.5691131090524,127.064611716233
사랑애흑염소,한식,서울특별시 동대문구 망우로21가길 4,동대문구,37.5906104444862,127.062464271595
녹번상회,한식,서울특별시 은평구 서오릉로 16,은평구,37.6028245166912,126.926379711024
만세회관,한식,서울특별시 성동구 아차산로 126,성동구,37.5434989075604,127.058053868759
우짜커피,카페/디저트,서울특별시 중구 을지로 288-1,중구,37.5651315701428,127.009955451218
주장,한식,서울특별시 도봉구 덕릉로60길 40,도봉구,37.6384696201564,127.040277061681
곱도리탕전문점 노원점,찜탕,서울특별시 노원구 상계로23길 18,노원구,37.6589487144139,127.068719627965
소문난상계감자탕,찜탕,서울특별시 노원구 한글비석로24길 32,노원구,37.6621178131913,127.072357658639
펠어커피초코 상봉점,카페/디저트,서울특별시 중랑구 동일로129길 61,중랑구,37.6000738653616,127.076342720716
경성밥상 성신여대점,한식,서울특별시 성북구 보문로38길 11,성북구,37.5916625438915,127.014818171378
스시화 강북점,돈까스/일식,서울특별시 강북구 도봉로20가길 29,강북구,37.6198880173524,127.029357342647
블레싱테이블,한식,서울특별시 광진구 광나루로39길 11,광진구,37.5455028168806,127.088780729862
샹샤오미 중식당,중식,서울특별시 동대문구 회기로 169-1,동대문구,37.5905377761912,127.054953333848
도선푸드,한식,서울특별시 은평구 연서로16길 15,은평구,37.6095073170615,126.918402336886
그라츠커피랩,카페/디저트,서울특별시 용산구 신흥로26길 11-22,용산구,37.5456828726578,126.983355841687
시드니 김치찜(뚝섬점),찜탕,서울특별시 성동구 상원12길 34,성동구,37.5495385436166,127.050472350066
왕십리포차,야식,서울특별시 성동구 무학로2길 52,성동구,37.5620961698764,127.035137111695
오로지라멘 종각본점,돈까스/일식,서울특별시 종로구 삼일대로15길 8,종로구,37.5689228456463,126.987006150496
금주막,한식,서울특별시 중랑구 중랑역로 143,중랑구,37.6062015747774,127.076643320138
댐파인커피,카페/디저트,서울특별시 성북구 한천로 660-16,성북구,37.6178285453638,127.056186624861
꼬치튀김이야기,분식,서울특별시 광진구 동일로18길 28,광진구,37.5395703529954,127.064343397081
지어앤Choen,아시안/양식,서울특별시 동대문구 이문로 39,동대문구,37.591159618723,127.056526746116
오닭꼬치,한식,서울특별시 서대문구 통일로39나길 5-1,서대문구,37.5882966780828,126.943394690999
188 김치찜,찜탕,서울특별시 은평구 은평로9길 13,은평구,37.6013680588223,126.921205947636
죽이야기(뚝섬점),한식,서울특별시 성동구 아차산로 42,성동구,37.5464347311743,127.049100119424
고청담 광화문 디타워점,한식,서울특별시 종로구 종로3길 17,종로구,37.5709958592808,126.978914477333
어로어,아시안/양식,서울특별시 도봉구 해등로16길 52-19,도봉구,37.6547253779527,127.043244159887
와우 솥뚜껑삼겹살,한식,서울특별시 도봉구 마들로 649-20,도봉구,37.6683516698836,127.044851810275
굴다리,한식,서울특별시 노원구 석계로7길 2,노원구,37.6167941054787,127.064001784635
손큰할매순대국 상계점,찜탕,서울특별시 노원구 한글비석로24길 45,노원구,37.6627277529099,127.07269055185
만삭토스트,분식,서울특별시 중랑구 용마산로 394,중랑구,37.5866519523067,127.095551256708
장안정,한식,서울특별시 동대문구 한천로28길 26,동대문구,37.5731639696179,127.068160417865
착한족발 답십리점,족발/보쌈,서울특별시 동대문구 한천로11길 6,동대문구,37.5673706689293,127.061930858051
키요이미즈,돈까스/일식,서울특별시 동대문구 한천로46길 42,동대문구,37.5814628804522,127.070706551458
강화통통생고기,한식,서울특별시 은평구 은평로 108,은평구,37.5997123185996,126.919882555261
루하스 사우나,한식,서울특별시 은평구 통일로 1022,은평구,37.633802248678,126.917738964075
훈이네(떡튀순),한식,서울특별시 은평구 갈현로11길 27,은평구,37.604880008029,126.907519598968
공차 시청점,카페/디저트,서울특별시 중구 을지로1길 15,중구,37.5667948385943,126.979722030832
해뜰날,한식,서울특별시 중구 퇴계로90길 56,중구,37.5629213335664,127.021479619462
향도 중식레스토랑,중식,서울특별시 중구 명동10길 19-3,중구,37.5630698136517,126.98561080516
그린데이즈 용산점,한식,서울특별시 용산구 청파로45길 36,용산구,37.5446402975891,126.968598587922
최대감네,한식,서울특별시 종로구 인사동8길 12-3,종로구,37.5740605788743,126.986112777089
퍼멘티드 서촌,아시안/양식,서울특별시 종로구 필운대로 45,종로구,37.5801925160173,126.968508490721
남도식당,한식,서울특별시 도봉구 도봉로169나길 66,도봉구,37.6767486670062,127.04352400891
고반식당,한식,서울특별시 노원구 동일로242길 66,노원구,37.6743335579611,127.058770026978
범맥주 상봉점,야식,서울특별시 중랑구 봉우재로33길 55-6,중랑구,37.5951137013364,127.088510920288
우덮동밥,한식,서울특별시 동대문구 휘경로2길 21 (이문동),동대문구,37.5951309460922,127.060649181699
소단정,한식,서울특별시 서대문구 응암로1길 18,서대문구,37.5818228308036,126.910331701215
포옹남 서대문,아시안/양식,서울특별시 서대문구 통일로 141,서대문구,37.5669236364415,126.965231207271
강남원 김치찜,찜탕,서울특별시 용산구 회나무로 41,용산구,37.5398352369453,126.991167416752
이든식당,한식,서울특별시 종로구 새문안로5길 37,종로구,37.5736488068784,126.974213175414
인쌩맥주,야식,서울특별시 종로구 종로14길 19,종로구,37.5690689023223,126.987054345753
초이김밥,도시락,서울특별시 도봉구 노해로70길 81,도봉구,37.64883051469,127.052569730754
타즈스시,돈까스/일식,서울특별시 도봉구 도봉로 727,도봉구,37.669342725458,127.043223283476
노원부대찌개,찜탕,서울특별시 노원구 동일로 1493,노원구,37.6616423693886,127.058001700205
곱도리탕 전문점 상봉점,찜탕,서울특별시 중랑구 동일로136길 23,중랑구,37.6026273631234,127.080675696597
먹자,중식,서울특별시 광진구 뚝섬로23길 60,광진구,37.5373735112244,127.066659645067
힘난다버거 용두점,패스트푸드,서울특별시 동대문구 왕산로 68,동대문구,37.5774850954352,127.030898977222
인생건어물맥주 신사봉산터널점,야식,서울특별시 은평구 가좌로 386,은평구,37.6002357698739,126.904918650329
프레드피자 은평점,피자,서울특별시 은평구 서오릉로 88,은평구,37.6080694395664,126.921609081272
현대수산,돈까스/일식,서울특별시 서대문구 서소문로 45,서대문구,37.5612879295253,126.966248165125
홍콩앤 타이완,중식,서울특별시 중구 서소문로 89-20,중구,37.5632510909133,126.972031493823
효다방,카페/디저트,서울특별시 중구 충무로2길 38-1,중구,37.5622301461694,126.995269830227
홀덤카페(NY),카페/디저트,서울특별시 용산구 청파로47나길 7,용산구,37.5452944797408,126.966828861817
번트서울,한식,서울특별시 종로구 청계천로 155,종로구,37.5688643430719,126.994849801841
꿀벌치킨 강정,치킨,서울특별시 도봉구 도봉로113길 20,도봉구,37.6483673977733,127.0329679745
커피로드주니어,카페/디저트,서울특별시 노원구 석계로13길 40,노원구,37.6209501145497,127.061242629476
파스타왔어요,아시안/양식,서울특별시 중랑구 동일로126길 43,중랑구,37.5988527840486,127.082585700391
데스티니(Destiny),아시안/양식,서울특별시 광진구 동일로24길 82,광진구,37.5426090415009,127.069472673528
라면에빠진타코야끼,분식,서울특별시 광진구 광장로 69,광진구,37.5476427024233,127.104811351725
밀로온더고,아시안/양식,서울특별시 광진구 천호대로 530,광진구,37.5577008537545,127.077023348242
본죽&비빔밥 회기역점,한식,서울특별시 동대문구 망우로 67,동대문구,37.5899007986358,127.060610064015
고기싸롱 응암점,한식,서울특별시 은평구 응암로 319,은평구,37.5997109401508,126.921450935505
묵골쌈밥,한식,서울특별시 은평구 갈현로1길 36,은평구,37.6001577233593,126.905678823306
소문난 간이횟집,회,서울특별시 은평구 서오릉로8길 4,은평구,37.6078545234888,126.922244541166
자마버거 대조점,패스트푸드,서울특별시 은평구 연서로26길 9-6,은평구,37.617151368796,126.92101361846
카프,한식,서울특별시 은평구 백련산로 177-11,은평구,37.6003408675789,126.926269030328
감성전집,한식,서울특별시 종로구 종로46길 32,종로구,37.5703184095576,127.010108389987
게장마을,한식,서울특별시 은평구 연서로29길 8-15,은평구,37.6194098554967,126.919650287607
설곰탕,찜탕,서울특별시 은평구 연서로 211-2,은평구,37.6175499725105,126.918898154777
몽에,아시안/양식,서울특별시 서대문구 거북골로20길 32,서대문구,37.5794255983047,126.910266990033
타코(TACO) 359,아시안/양식,서울특별시 노원구 한글비석로 265,노원구,37.6514499678519,127.076558915758
묵동전,한식,서울특별시 중랑구 동일로 855,중랑구,37.6068385102119,127.078115445863
또리커피 수유점,카페/디저트,서울특별시 강북구 덕릉로 49,강북구,37.6345257423207,127.01915085308
비스트로 웨이트(BISTRO WAIT),아시안/양식,서울특별시 강북구 오패산로31길 43,강북구,37.6134687160594,127.031569075906
속초킹김밥&도시락,도시락,서울특별시 강북구 도봉로71가길 4,강북구,37.6315241004662,127.022746996634
어서와디저트,카페/디저트,서울특별시 강북구 인수봉로55가길 1,강북구,37.6366678822597,127.010024128761
도로시파스타연정 건대점,아시안/양식,서울특별시 광진구 광나루로 369,광진구,37.5484610827889,127.071049482737
리나,분식,서울특별시 광진구 용마산로2길 5,광진구,37.5550633104068,127.088777923922
똑이네떡볶이,분식,서울특별시 동대문구 전농로27길 32,동대문구,37.5807615327078,127.053426394329
미정레스토랑,한식,서울특별시 성동구 왕십리로 134,성동구,37.5495264804791,127.044629777329
양가네 김치찜 왕십리점,찜탕,서울특별시 성동구 마장로 137,성동구,37.5678250213491,127.025053595952
와이디푸드 성동구점,한식,서울특별시 성동구 마장로 137,성동구,37.5678250213491,127.025053595952
정이담,한식,서울특별시 성동구 왕십리로 83-21,성동구,37.5441547484979,127.043357753557
케이지드,분식,서울특별시 성동구 왕십리로 104,성동구,37.5468263604442,127.044886399347
만나김밥 앤 라면,도시락,서울특별시 중구 청계천로 400,중구,37.5708105464699,127.021463886656
명동아구찜,찜탕,서울특별시 중구 퇴계로24길 13-8,중구,37.560370480333,126.987669290854
프레퍼스 다이어트 푸드 광화문점,아시안/양식,서울특별시 중구 세종대로 136,중구,37.5684232177354,126.97825653257
(제주)돈꼭집,한식,서울특별시 은평구 진흥로 143,은평구,37.6085099873913,126.92558959919
대포차시대,야식,서울특별시 은평구 가좌로 222,은평구,37.5899522383439,126.917655568247
롱보트스모커,돈까스/일식,서울특별시 서대문구 증가로 27,서대문구,37.5705445950402,126.930293105947
보람 돈가스&속초 명품 코다리 조림,한식,서울특별시 노원구 한글비석로48길 8,노원구,37.6646122778958,127.067321033628
카페이퍼스,아시안/양식,서울특별시 중랑구 중랑천로 81,중랑구,37.5924433486456,127.072666861107
퓨전 전집,한식,서울특별시 중랑구 동일로143길 49,중랑구,37.6049542966894,127.075865383616
프랭크버거 용마산역점,패스트푸드,서울특별시 중랑구 면목로 256,중랑구,37.5755949345456,127.085853107186
그레도 제빵사,카페/디저트,서울특별시 성북구 화랑로 304,성북구,37.6133819395893,127.062209788151
"서대문김치찜,김치찌개",찜탕,서울특별시 성북구 오패산로 20,성북구,37.6040355105561,127.037790385644
시안식당,중식,서울특별시 동대문구 제기로 11,동대문구,37.5866143939761,127.0342318868
제일식당,한식,서울특별시 동대문구 왕산로 143,동대문구,37.5785867839247,127.039245719345
해방촌 하테바,한식,서울특별시 용산구 소월로20길 60,용산구,37.5441306734741,126.984323446388
정대(正大),돈까스/일식,서울특별시 종로구 경희궁길 36,종로구,37.5729199136655,126.970063182815
오오미미,돈까스/일식,서울특별시 용산구 두텁바위로1길 104,용산구,37.5484083264657,126.976131946504
우물집,한식,서울특별시 종로구 창신길 200,종로구,37.5796618299079,127.00992319615
홍성옥,한식,서울특별시 종로구 홍지문길 7,종로구,37.6001506635689,126.956820966581
본코리아 지앤에프 (G&F),한식,서울특별시 은평구 응암로30길 16,은평구,37.5952285650967,126.91939457024
원조감자탕 일미집 정릉점,찜탕,서울특별시 성북구 보국문로11길 18-6,성북구,37.6089747634267,127.009055823071
맥주아비 장한평역점,야식,서울특별시 동대문구 장한로2길 20,동대문구,37.5618492350074,127.066317109604
카페단아,카페/디저트,서울특별시 동대문구 안암로 104,동대문구,37.5847679020217,127.031637562759
푸드랩,한식,서울특별시 동대문구 한천로24길 74-16,동대문구,37.5678356016246,127.067799912783
ttitto 띠또분식,분식,서울특별시 성동구 왕십리로 83-21,성동구,37.5441547484979,127.043357753557
코끼리 빠 카페,카페/디저트,서울특별시 성동구 금호로 58,성동구,37.5485249951927,127.026049531714
마라인마라탕마라샹궈,찜탕,서울특별시 광진구 능동로44길 28,광진구,37.5603853040639,127.083105391831
안녕식당 군자,돈까스/일식,서울특별시 광진구 능동로36길 55,광진구,37.5553945486077,127.082136518559
어린이회관체육시설매점,분식,서울특별시 광진구 광나루로 441,광진구,37.5472460029599,127.078304434841
탕화쿵푸마라탕,찜탕,서울특별시 광진구 능동로49길 10,광진구,37.5644706928171,127.08284744936
명동사랑방 by 어반플랜트,아시안/양식,서울특별시 중구 명동8나길 38,중구,37.5617094550686,126.982674651463
상관없지않나,아시안/양식,서울특별시 중구 퇴계로86가길 26,중구,37.5620529154642,127.019625426899
다이닝펍,아시안/양식,서울특별시 종로구 자하문로10길 14,종로구,37.579320104654,126.972178543425
쿠키,아시안/양식,서울특별시 용산구 보광로59길 10,용산구,37.5340421353233,126.993496428747
동두천 솥뚜껑 삼겹살,한식,서울특별시 종로구 삼일대로19길 15,종로구,37.5694491754377,126.986720356042
큰손 함흥냉면,한식,서울특별시 종로구 새문안로5길 13,종로구,37.5713696938344,126.974415113084
이자카야 토끼굴,한식,서울특별시 은평구 응암로11길 9,은평구,37.5884407335467,126.915614119625
집밥세끼,한식,서울특별시 중랑구 봉화산로4길 42,중랑구,37.5997979778269,127.075790051765
경동컵밥,한식,서울특별시 동대문구 고산자로36길 3,동대문구,37.5790377655561,127.039142935818
신성마라탕,찜탕,서울특별시 광진구 영화사로 20,광진구,37.5574264513238,127.089486947676
아라치치킨 명동점,치킨,서울특별시 중구 명동10길 35-9,중구,37.5624358973726,126.98581635591
하림치킨,치킨,서울특별시 용산구 청파로71길 13,용산구,37.5491991569363,126.968882414396
교자바 하우스,돈까스/일식,서울특별시 용산구 한남대로18길 27,용산구,37.5347600052955,127.008648694465
브레디포스트,아시안/양식,서울특별시 용산구 한강대로44길 19,용산구,37.5307740847198,126.971075519907
비건아지타토,한식,서울특별시 종로구 인사동길 35-4,종로구,37.5735538862116,126.984865059281
그로밋 커피하우스,카페/디저트,서울특별시 서대문구 연희로8길 16-6,서대문구,37.5651647841161,126.930656246091
똘이네,한식,서울특별시 서대문구 가재울로6길 53-87,서대문구,37.5770014321492,126.923101000154
이태리면사무소,아시안/양식,서울특별시 서대문구 수색로2길 39,서대문구,37.5713138623933,126.915904667901
할리스홍제천점,카페/디저트,서울특별시 서대문구 홍제내길 52,서대문구,37.584802093985,126.936166344795
화진식당순대국,찜탕,서울특별시 서대문구 가재울로6길 53-87,서대문구,37.5770014321492,126.923101000154
둘리포차,야식,서울특별시 도봉구 삼양로 626,도봉구,37.6589478892284,127.014078001262
용돼지,한식,서울특별시 도봉구 도봉로 749,도봉구,37.671418743033,127.043524069593
차고집냉면,한식,서울특별시 노원구 상계로17길 20,노원구,37.6587843675596,127.067798896767
파스타왔어요,아시안/양식,서울특별시 노원구 상계로17길 20,노원구,37.6587843675596,127.067798896767
꿀도야 떡갈비,한식,서울특별시 중랑구 면목로74길 20,중랑구,37.58919594037,127.088573771534
누나호프,치킨,서울특별시 중랑구 상봉로 47,중랑구,37.5901223407015,127.093366585479
서울손만두,분식,서울특별시 중랑구 용마산로 494,중랑구,37.5949757275537,127.100268095195
바른 김치찜,찜탕,서울특별시 성북구 보문로 149-1,성북구,37.5880623633325,127.017422259558
이자카야 진,돈까스/일식,서울특별시 동대문구 장한로 116,동대문구,37.5707327261364,127.071061465051
인생감자탕 이문점,찜탕,서울특별시 동대문구 이문로 91,동대문구,37.5951701034521,127.059121467439
곱도리탕전문점(건대점),찜탕,서울특별시 광진구 자양로19길 74,광진구,37.5384121586295,127.079512211646
감성분식,분식,서울특별시 중구 다산로 182-1,중구,37.5596510669324,127.013670638428
콩뼈숯뼈(북창점),한식,서울특별시 중구 남대문로 17,중구,37.5611662101429,126.977646553414
쉼표,한식,서울특별시 은평구 갈현로29길 24-1,은평구,37.6203695175835,126.913191297233
김사부의곱창명가 강북점,한식,서울특별시 도봉구 도봉로133길 33,도봉구,37.657701961951,127.03770265502
김선생불닭발 강북점,한식,서울특별시 도봉구 도봉로133길 33,도봉구,37.657701961951,127.03770265502
인생맥주,야식,서울특별시 도봉구 해등로16길 26,도봉구,37.6556290632666,127.041487916229
모이카페,카페/디저트,서울특별시 중랑구 용마산로125길 108-17,중랑구,37.6047601921845,127.102184359166
카페 다디단,카페/디저트,서울특별시 중랑구 면목로31길 48,중랑구,37.5761406894723,127.082536724664
양가네고기듬뿍김치찜 길음점,찜탕,서울특별시 성북구 삼양로 35,성북구,37.606231004929,127.023773153729
와이디푸드 미아점,한식,서울특별시 성북구 삼양로 35,성북구,37.606231004929,127.023773153729
의정부사람,돈까스/일식,서울특별시 성북구 정릉로23길 52,성북구,37.6079958063261,127.009463414932
기대만족 수유쌍문점,한식,서울특별시 강북구 오패산로67길 18,강북구,37.6358687862657,127.027224501876
전설의두루치기,한식,서울특별시 강북구 오현로31길 14,강북구,37.6294064722333,127.039067833089
휘경홍어,한식,서울특별시 광진구 용마산로 105,광진구,37.5630418968561,127.086731501804
KMGM 동대문점,한식,서울특별시 중구 퇴계로73길 16,중구,37.5659252714964,127.014219847071
노스트로 파스타,아시안/양식,서울특별시 중구 서소문로 89-20,중구,37.5632510909133,126.972031493823
브라주카 그릴,아시안/양식,서울특별시 중구 무교로 19,중구,37.5676347080798,126.978984811389
콩시콩뼈,한식,서울특별시 중구 남대문로 17,중구,37.5611662101429,126.977646553414
탭샵바 동대문두타점,한식,서울특별시 중구 장충단로 275,중구,37.5688849422849,127.008775114213
세상 밖으로,한식,서울특별시 종로구 종로54길 9-20 (창신동),종로구,37.5719820595497,127.014746239013
철판김치볶음밥,한식,서울특별시 광진구 광나루로36길 46,광진구,37.5429274736996,127.086004261643
도이농,아시안/양식,서울특별시 용산구 한강대로14길 24,용산구,37.5245865309289,126.965335257279
청파비노,아시안/양식,서울특별시 용산구 청파로89길 60,용산구,37.553429584998,126.965843843635
맘스터치 피자앤치킨 종로점,피자,서울특별시 종로구 성균관로 21-2,종로구,37.584620199866,126.997146465908
서울코미디클럽,아시안/양식,서울특별시 종로구 종로14길 4,종로구,37.5698255207023,126.98671553503
이스트아뜰리에,아시안/양식,서울특별시 종로구 동순라길 80,종로구,37.5742246024046,126.996444445641
히츠지야 익선,돈까스/일식,서울특별시 종로구 삼일대로30길 34-5 (익선동),종로구,37.574096887369,126.989600963676
한결보쌈 중랑점,한식,서울특별시 중랑구 봉화산로 221,중랑구,37.6080276018454,127.097205473343
안녕스시,돈까스/일식,서울특별시 은평구 통일로 1010,은평구,37.6327971461007,126.918571397928
(주)금고기 비스트로 신촌,한식,서울특별시 서대문구 연세로5가길 13,서대문구,37.5572145013793,126.935957422035
카페몬지,카페/디저트,서울특별시 서대문구 신촌로 83,서대문구,37.5560830579515,126.935844876509
홍언니 칼국수,한식,서울특별시 강북구 도봉로20길 7,강북구,37.6186555175865,127.029869740492
율길리국수,한식,서울특별시 노원구 한글비석로 396,노원구,37.6623030184626,127.073581746977
페인트커피&바,카페/디저트,서울특별시 중구 마른내로 103,중구,37.5646036441569,126.999394448431
바른고기정육점 광화문 SFC점,한식,서울특별시 중구 세종대로 136,중구,37.5684232177354,126.97825653257
하동진,한식,서울특별시 중구 다산로 274,중구,37.5674464828596,127.016527092399
아폴로(APOLLO),아시안/양식,서울특별시 용산구 장문로 98,용산구,37.5260061009381,127.000369365753
녹지,한식,서울특별시 종로구 청계천로 65,종로구,37.5688047321292,126.984801047174
조선밥도둑 안녕인사동점,한식,서울특별시 종로구 인사동길 49,종로구,37.5744668688197,126.983552182559
만남의 광장,한식,서울특별시 중랑구 상봉중앙로8나길 37,중랑구,37.6011377049745,127.09114301755
88제육,한식,서울특별시 동대문구 장한로5길 55,동대문구,37.5653499269447,127.063436513994
오육,한식,서울특별시 동대문구 무학로45길 15,동대문구,37.5809566375123,127.029077246508
카페이티씨.(휘경직영점),카페/디저트,서울특별시 동대문구 한천로 264,동대문구,37.5843095358408,127.068314251007
라파예트,아시안/양식,서울특별시 성동구 독서당로46길 38-1,성동구,37.5479680932462,127.023444460743
바이바로,아시안/양식,서울특별시 성동구 상원6나길 10,성동구,37.5484098584717,127.049417365238
삼선회사랑 뚝섬점,돈까스/일식,서울특별시 성동구 왕십리로10길 6,성동구,37.5466833002846,127.045309871816
한낮의밤,아시안/양식,서울특별시 성동구 성덕정길 109,성동구,37.537188019873,127.055651078212
대패로,한식,서울특별시 광진구 능동로13길 88,광진구,37.5455037246349,127.068628822449
전설의왕만두 자양점,분식,서울특별시 광진구 뚝섬로 642,광진구,37.5315136106132,127.080762180981
족발예찬,족발/보쌈,서울특별시 광진구 구의강변로 87,광진구,37.5384970387474,127.093637547766
도회푸드 건강한쌈 은평점,한식,서울특별시 은평구 진흥로11길 6,은평구,37.6075988019963,126.92303768674
삼미마라탕도봉점,찜탕,서울특별시 도봉구 해등로17길 12,도봉구,37.6564351787743,127.038269780018
수유리우동집 도봉구청점,돈까스/일식,서울특별시 도봉구 도봉로152길 32,도봉구,37.6693291359689,127.045576113116
정담초밥,돈까스/일식,서울특별시 도봉구 도봉로 588,도봉구,37.657050480671,127.040104413029
창동맥주공장,야식,서울특별시 도봉구 노해로63길 84-9,도봉구,37.6525366988117,127.047268829188
카츠백 쌍문점,돈까스/일식,서울특별시 도봉구 방학로3길 33,도봉구,37.6612068543685,127.040993031832
밥도먹고술도먹고 포차,야식,서울특별시 강북구 삼양로87길 46,강북구,37.6361807708457,127.015401303631
호랑이떡볶이 노원중계점,분식,서울특별시 노원구 중계로 164,노원구,37.6497466481357,127.081158941093
릴리언,아시안/양식,서울특별시 용산구 한남대로27가길 15,용산구,37.5373857118299,127.002909211408
남산동,한식,서울특별시 중구 삼일대로 343,중구,37.5651004556362,126.986959615068
오늘칡냉면,한식,서울특별시 동대문구 장한로21길 22,동대문구,37.5703512950736,127.069002182715
우마스시,돈까스/일식,서울특별시 동대문구 회기로 193,동대문구,37.5901851144732,127.057441553909
단단,한식,서울특별시 성동구 서울숲4길 16-25,성동구,37.5468859197462,127.042440925531
디에이트(D.ATE),아시안/양식,서울특별시 성동구 살곶이8길 2,성동구,37.5572397086394,127.040998030319
마약낙곱새 광진점,한식,서울특별시 광진구 광나루로12길 6,광진구,37.5473700346382,127.067725470754
순대사관학교,한식,서울특별시 광진구 자양로15길 91,광진구,37.5346670480142,127.078724274943
아지트,치킨,서울특별시 은평구 가좌로 334,은평구,37.5981158955891,126.908770078234
빡빡이네 칼국수,한식,서울특별시 도봉구 도당로 73,도봉구,37.6646050995758,127.035381792631
돈카츠마켙 노원상계점,돈까스/일식,서울특별시 노원구 동일로213길 77,노원구,37.6477875492006,127.057745374328
용산마루,돈까스/일식,서울특별시 용산구 한강대로11길 24,용산구,37.5255257800804,126.962530263053
도노,아시안/양식,서울특별시 용산구 두텁바위로 81-2,용산구,37.5468067663401,126.980892431701
샵도노(#dono),아시안/양식,서울특별시 용산구 두텁바위로 81-2,용산구,37.5468067663401,126.980892431701
소수 엑스(SOSOO X),한식,서울특별시 용산구 한남대로20길 47-10,용산구,37.5352054503904,127.009918094556
에이치바(H BAR),아시안/양식,서울특별시 용산구 서빙고로 17,용산구,37.5269056148241,126.966566172294
윤경남 7통 황태국,한식,서울특별시 용산구 녹사평대로26가길 9,용산구,37.5323529435483,126.992100673191
이그니(igni),아시안/양식,서울특별시 용산구 녹사평대로32길 43,용산구,37.5328479505042,126.99081275746
라이,중식,서울특별시 종로구 대학로 40-1,종로구,37.5746817988418,127.002270614962
오브 오프 라이트(Orb of Light),아시안/양식,서울특별시 종로구 삼일대로32길 57,종로구,37.5756595303044,126.990159521029
조선부뚜막 종각점,한식,서울특별시 종로구 우정국로2길 21,종로구,37.5697034972222,126.984281413033
맛있는 멸치국수,한식,서울특별시 중랑구 중랑천로10길 63,중랑구,37.5924780874838,127.076438112849
타코나라,분식,서울특별시 중랑구 중랑역로3나길 39,중랑구,37.5962985326796,127.07379378967
가마치통닭 센트럴 장안점,치킨,서울특별시 동대문구 한천로24길 77,동대문구,37.5691365827445,127.068985894114
더노벰버라운지 고대점,아시안/양식,서울특별시 동대문구 한빛로 49,동대문구,37.5798417442215,127.026808531973
행운돈까스,아시안/양식,서울특별시 동대문구 답십리로72길 24,동대문구,37.5710877305385,127.073974927072
두레통닭,치킨,서울특별시 광진구 자양로26길 31,광진구,37.5415636493155,127.085731129431
힐링아트화실&카페,카페/디저트,서울특별시 광진구 능동로 183,광진구,37.5470202245821,127.073665406544
명품양꼬치,중식,서울특별시 은평구 연서로4길 20,은평구,37.6025214781064,126.918119721663
공룡치킨,치킨,서울특별시 서대문구 홍은중앙로 97,서대문구,37.5995030544035,126.948355288451
우애돈카츠,돈까스/일식,서울특별시 노원구 동일로 1651,노원구,37.6759608277495,127.055010947165
보광캐빈,치킨,서울특별시 용산구 보광로 17,용산구,37.5260131257855,127.000915325754
미미재,한식,서울특별시 용산구 독서당로 22,용산구,37.5301631563664,127.007801799645
아이들 모먼츠(Idle Moments),아시안/양식,서울특별시 종로구 자하문로 131-37,종로구,37.587380425361,126.967712684489
브라운돈까스 두타몰점,아시안/양식,서울특별시 중구 장충단로 275,중구,37.5688849422849,127.008775114213
오공일(OH01),한식,서울특별시 중구 손기정로1길 38,중구,37.5588459459913,126.962055324412
연초밥,한식,서울특별시 은평구 연서로18길 11,은평구,37.6123065676483,126.918878818961
시마스시,돈까스/일식,서울특별시 동대문구 왕산로 214,동대문구,37.5841961381161,127.05114707633
바다향기,회,서울특별시 중랑구 용마산로115길 104,중랑구,37.5981984061383,127.094575074248
속초오징어물회,돈까스/일식,서울특별시 중랑구 용마산로115길 104,중랑구,37.5981984061383,127.094575074248
아차산매운떡볶이,분식,서울특별시 중랑구 용마산로115길 104,중랑구,37.5981984061383,127.094575074248
윤선생연어,회,서울특별시 중랑구 용마산로115길 104,중랑구,37.5981984061383,127.094575074248
인생해물탕,찜탕,서울특별시 중랑구 용마산로115길 104,중랑구,37.5981984061383,127.094575074248
청담 대게,한식,서울특별시 중랑구 용마산로115길 104,중랑구,37.5981984061383,127.094575074248
철길부산집(한양대점),한식,서울특별시 성동구 마조로 15-12,성동구,37.5589637596576,127.040232868512
김밥천국 중곡점,도시락,서울특별시 광진구 긴고랑로15길 16,광진구,37.5627295898681,127.083512403453
이가탕수6 아차산역점,찜탕,서울특별시 광진구 천호대로131길 7,광진구,37.5516642084301,127.090555149995
투마마식탁명태코다리조림감자탕닭볶음탕김치찌개제육쭈꾸미볶음,찜탕,서울특별시 은평구 진흥로1길 53,은평구,37.6052003911283,126.918118937092
대광분식,분식,서울특별시 서대문구 북아현로 46-1,서대문구,37.56142620488,126.956035202491
청춘 회 어시장,회,서울특별시 도봉구 덕릉로 227,도봉구,37.6384863481039,127.037640485246
순덕이네,한식,서울특별시 강북구 도봉로95길 6,강북구,37.6411637089459,127.028310972799
아이빅미트,한식,서울특별시 강북구 도봉로13길 29,강북구,37.6150754620305,127.028695349903
노원골 제주흑돼지,한식,서울특별시 노원구 동일로242가길 52,노원구,37.6783018809437,127.055884751891
윤이불닭발 노원점,한식,서울특별시 노원구 상계로9나길 18,노원구,37.6605482451084,127.067910320237
꿀꿀돈돈,한식,서울특별시 용산구 청파로47길 52,용산구,37.5449725093355,126.967646680698
스시우미 광화문,돈까스/일식,서울특별시 종로구 삼봉로 81,종로구,37.5725639351805,126.981506298154
일 익스프레스,한식,서울특별시 종로구 종로 65,종로구,37.5704813826918,126.984708904431
한국피자헛 독립문역점,피자,서울특별시 종로구 송월길 155,종로구,37.5717267174551,126.961625543187
비에스티카페 동대문점,카페/디저트,서울특별시 중구 장충단로 226,중구,37.5647179972794,127.00776193791
베러댄와플 앤 타코야끼,한식,서울특별시 은평구 진관4로 17,은평구,37.6436459287601,126.922900461734
아리랑 한식,한식,서울특별시 은평구 통일로89길 6-11,은평구,37.6250660673368,126.919114621306
대디롱,도시락,서울특별시 성북구 월계로40길 7,성북구,37.6229473543321,127.048397229405
두레통닭망우점,치킨,서울특별시 중랑구 양원역로 10-1,중랑구,37.6015183388035,127.108347934875
아버지집,분식,서울특별시 중랑구 답십리로77길 65,중랑구,37.5745158283809,127.08138004268
육연식당,돈까스/일식,서울특별시 중랑구 동일로 932,중랑구,37.6138393830212,127.077557139207
등촌샤브칼국수,한식,서울특별시 성동구 금호산길 65,성동구,37.5541621073641,127.019410708378
설내옥설렁탕,찜탕,서울특별시 성동구 금호로 141-2,성동구,37.5537847079277,127.02082932018
육회바른연어 공릉점,회,서울특별시 노원구 동일로 986,노원구,37.6182161017816,127.07591204414
홍홍,아시안/양식,서울특별시 용산구 한강대로7길 30-18,용산구,37.5254197268691,126.961950195837
백억커피 만리점,카페/디저트,서울특별시 용산구 효창원로 278-1,용산구,37.5518306949656,126.963214664848
뭄뭄광화문점,돈까스/일식,서울특별시 종로구 새문안로 68,종로구,37.5696425113058,126.972139469043
"운현궁, 아침",한식,서울특별시 종로구 삼일대로 461,종로구,37.5755954796793,126.985829029631
블루보틀커피코리아 명동,카페/디저트,서울특별시 중구 명동길 14,중구,37.5634116488196,126.98288772495
뽀루뚜나,아시안/양식,서울특별시 중구 소공로6길 28,중구,37.5584653224355,126.984602822644
오스테리아 스테쏘,아시안/양식,서울특별시 중구 남대문로 81,중구,37.5647299033135,126.981730421825
미루 서울,한식,서울특별시 중구 마른내로2길 29-1,중구,37.5631444535798,126.99159986194
일만족발,족발/보쌈,서울특별시 도봉구 도봉로125길 52,도봉구,37.6548758228623,127.036937874943
우아한과일&카페 경희의료원점,카페/디저트,서울특별시 동대문구 경희대로 23,동대문구,37.5937762050989,127.050741696591
클럽용두,아시안/양식,서울특별시 동대문구 무학로30길 8,동대문구,37.5750700188504,127.031093707383
봉삼슈퍼,아시안/양식,서울특별시 중랑구 상봉중앙로9길 2-4,중랑구,37.6020726621652,127.086964325203
짬뽕대가 임사부반점 중화점,중식,서울특별시 중랑구 봉화산로4길 3,중랑구,37.6013193031341,127.076205497408
현심야식당,야식,서울특별시 성동구 왕십리로4길 24-7,성동구,37.5468373002062,127.046648878068
원더버거,패스트푸드,서울특별시 강북구 노해로8가길 36,강북구,37.6396728953276,127.023598445247
홍희네생삼겹살,한식,서울특별시 강북구 도봉로53길 27,강북구,37.6265460331271,127.024242941957
LA라운지,한식,서울특별시 은평구 연서로29길 20-12,은평구,37.6195761206329,126.918777133195
빽보이피자 연신내점,피자,서울특별시 은평구 연서로26길 4,은평구,37.6171159363514,126.919909192012
용산은행나무포차,야식,서울특별시 용산구 서빙고로 4-12,용산구,37.52572030186,126.965164361258
베이직프라이드치킨 새절샬롬,치킨,서울특별시 은평구 불광천길 460,은평구,37.5944331928977,126.915435579865
숙성회포장,회,서울특별시 은평구 응암로25길 5,은평구,37.5950601177945,126.917622764112
비비큐 신내점,치킨,서울특별시 중랑구 봉화산로59길 33,중랑구,37.6106624340887,127.103788903651
신선포차,야식,서울특별시 강북구 도봉로67길 45,강북구,37.6297736879239,127.022151032088
(PUBBEE COFFEE)퍼비커피,아시안/양식,서울특별시 노원구 동일로186길 30,노원구,37.624886861416,127.074594035006
짱돌,한식,서울특별시 광진구 동일로22길 117-19,광진구,37.5415234445325,127.070808673647
반수우안(VAN XUAN),아시안/양식,서울특별시 종로구 대학로8가길 79,종로구,37.5824888810876,127.003554362356
침스버거,패스트푸드,서울특별시 종로구 북촌로 14-2,종로구,37.5780936533534,126.985717839141
약수낙지,한식,서울특별시 중구 동호로10길 17,중구,37.5547383137982,127.01176425918
동명카츠 경리단점,돈까스/일식,서울특별시 용산구 회나무로 21,용산구,37.5392205735752,126.989007364968
리오쿠치나,아시안/양식,서울특별시 강북구 4.19로 61-1,강북구,37.6460195505135,127.007770277058
킹곱창,한식,서울특별시 노원구 월계로45길 21,노원구,37.6256184658306,127.051276377642
우아하지,아시안/양식,서울특별시 용산구 회나무로 31-6,용산구,37.5398811036031,126.990103802969
원효로 벗찌,한식,서울특별시 용산구 원효로 203,용산구,37.5373371712142,126.964524774711
장충동왕 한방족발,족발/보쌈,서울특별시 은평구 응암로12길 5-1,은평구,37.5882171140736,126.917535991579
향나무참숯장어나라,한식,서울특별시 은평구 진흥로 153-4,은평구,37.6093207426403,126.926669243372
김치 육돈,한식,서울특별시 중랑구 용마산로115길 109,중랑구,37.5974663223384,127.094160266661
용마산역 순대국 감자탕,찜탕,서울특별시 중랑구 용마산로 228,중랑구,37.5741674853751,127.088301152119
네온서울 노원역점,한식,서울특별시 노원구 노해로81길 12-15,노원구,37.6557494969152,127.063095172733
올리브샌드카페,카페/디저트,서울특별시 강북구 도봉로29길 7,강북구,37.6205851255839,127.027811566931
이자카야연화리,돈까스/일식,서울특별시 강북구 삼양로 498,강북구,37.6476366840124,127.014802429578
다복향 마라탕 마들역점,찜탕,서울특별시 노원구 동일로 1541,노원구,37.6656742727167,127.05705028385
맛나분식,분식,서울특별시 광진구 긴고랑로 92,광진구,37.5603081874579,127.085615200915
찬스불고기부리또(군자점),아시안/양식,서울특별시 광진구 군자로 76,광진구,37.5499539254444,127.071085415083
탱고(Tango),중식,서울특별시 광진구 능동로 69,광진구,37.5378412310188,127.068994278343
교촌치킨 청량리역점,치킨,서울특별시 동대문구 왕산로 249-1,동대문구,37.5835972980592,127.049119761501
닭찌 흔한 닭볶음탕에도 명품은 있다,찜탕,서울특별시 동대문구 장한로27가길 32,동대문구,37.5744732838507,127.071231652791
까사피에스타 건대점,아시안/양식,서울특별시 광진구 광나루로 380,광진구,37.5476159822886,127.071882907152
해마루푸드 주식회사,한식,서울특별시 동대문구 답십리로 9,동대문구,37.5784693244422,127.043528549832
구기동 광,돈까스/일식,서울특별시 종로구 진흥로 445,종로구,37.6077211580755,126.958111972785
매머드커피익스프레스 장충동먹자골목점,카페/디저트,서울특별시 중구 장충단로 193-1,중구,37.5621395270466,127.006217621351
하남돼지집 동대문점,한식,서울특별시 중구 을지로43길 9,중구,37.566777288359,127.006708348049
오뎅에 꼬치닭,한식,서울특별시 은평구 진흥로12나길 2,은평구,37.6081036393649,126.926593765968
육회바른연어 구파발점,회,서울특별시 은평구 진관3로 21,은평구,37.6396025010646,126.919014455213
호세야 오리바베큐 본점(은평구),한식,서울특별시 은평구 증산로15길 42,은평구,37.5905457181422,126.909058535797
(주)푸르웰,한식,서울특별시 서대문구 모래내로 412,서대문구,37.5833186200007,126.940858017289
만복한우 소고기 국밥,찜탕,서울특별시 서대문구 인왕시장길 46,서대문구,37.5916156857946,126.944581411959
똑똑카페,카페/디저트,서울특별시 중랑구 양원역로14나길 21,중랑구,37.6071075122161,127.106994305178
엘앤와이(L&Y),아시안/양식,서울특별시 중랑구 면목로56길 61,중랑구,37.5839465219469,127.091829657275
윤반장동대문점 이모네김치찜청량리점,찜탕,서울특별시 동대문구 제기로 131,동대문구,37.5880286972814,127.049226158937
돈코복코,한식,서울특별시 성북구 동소문로23길 7,성북구,37.5938250019601,127.01753977839
너의냠냠버거,패스트푸드,서울특별시 성북구 성북로14길 7,성북구,37.5937935034207,127.001156998494
용천각,중식,서울특별시 도봉구 노해로 389,도봉구,37.6527681735064,127.051335609074
배떡 수유점,분식,서울특별시 강북구 오패산로 396,강북구,37.6365504936538,127.027901922316
혜준당,한식,서울특별시 강북구 도봉로72길 23,강북구,37.6322546249788,127.025372935446
지바(GeeBar),아시안/양식,서울특별시 노원구 덕릉로83길 22,노원구,37.6601982030916,127.074209796325
한식사관학교,한식,서울특별시 노원구 한글비석로 264,노원구,37.6511587125973,127.077337907538
라폰다,아시안/양식,서울특별시 성동구 독서당로 194,성동구,37.5426912380213,127.012662054013
카페내셔널,카페/디저트,서울특별시 성동구 광나루로4가길 14,성동구,37.5492288015054,127.054479502786
케이푸디,한식,서울특별시 동대문구 전농로16길 11,동대문구,37.5786571281384,127.058278816813
피자애 전농동점,피자,서울특별시 동대문구 전농로15길 7,동대문구,37.5781443526721,127.057027925032
수경수제만두,분식,서울특별시 광진구 광나루로36길 46,광진구,37.5429274736996,127.086004261643
전슐랭,한식,서울특별시 광진구 자양로 296,광진구,37.5520558380171,127.092574431221
청년분식,분식,서울특별시 광진구 광나루로 545,광진구,37.5462562195695,127.089987563362
사비오 커피,카페/디저트,서울특별시 중구 수표로 40,중구,37.5650408431067,126.990083497483
양밍위 황먼지 미판1,중식,서울특별시 중구 명동4길 18,중구,37.5628407085186,126.983673356253
이자카야나무 시청점 별관,돈까스/일식,서울특별시 중구 남대문로1길 37,중구,37.5626995350175,126.977221201336
이자카야나무 시청점 본관,돈까스/일식,서울특별시 중구 남대문로1길 37,중구,37.5626995350175,126.977221201336
트리에(Trier),아시안/양식,서울특별시 중구 다산로46길 17,중구,37.5668675982177,127.017122913186
국수포차,야식,서울특별시 용산구 원효로53길 1,용산구,37.5357713468907,126.961996756746
남영동 경주,한식,서울특별시 용산구 한강대로80길 21-3,용산구,37.5428263610867,126.973973610998
아그네스 하우스(AGNES HOUSE),아시안/양식,서울특별시 용산구 회나무로13가길 3-8,용산구,37.5409240059086,126.990042789676
에이엠(AM),한식,서울특별시 용산구 청파로47길 49,용산구,37.5445841559546,126.967563904498
위치원 샌드위치,아시안/양식,서울특별시 용산구 이태원로 164,용산구,37.5341850375105,126.992077625429
핑크피그(PINK PIG),돈까스/일식,서울특별시 용산구 한강대로 168-2,용산구,37.5336967726087,126.972674084438
신룽푸 마라탕 구파발점,찜탕,서울특별시 은평구 진관3로 11,은평구,37.6394630545503,126.918268068589
호우동,돈까스/일식,서울특별시 은평구 갈현로 24,은평구,37.6000387980095,126.91042750122
별콩커피&빙수,카페/디저트,서울특별시 서대문구 통일로 463,서대문구,37.5896244224324,126.942734489087
솥뚜껑누룽지통닭,치킨,서울특별시 서대문구 통일로 153,서대문구,37.5678647412699,126.964374018547
라사천마라탕 망우역점,찜탕,서울특별시 중랑구 송림길 3-7,중랑구,37.5991882028245,127.095063143878
미니미 꼬마김밥,도시락,서울특별시 성북구 보국문로30길 15,성북구,37.6174301321298,127.002991161258
미우카츠,돈까스/일식,서울특별시 성북구 안암로9가길 76,성북구,37.5822567123651,127.028206118118
골목깡통집,한식,서울특별시 도봉구 노해로65길 7-12,도봉구,37.6517298976344,127.045825536405
술,한식,서울특별시 은평구 연서로4길 20,은평구,37.6025214781064,126.918119721663
신사(Sinsa)포차,야식,서울특별시 은평구 증산로23길 27,은평구,37.5980614011054,126.912357519429
올데이파스타 은평본점,한식,서울특별시 은평구 역말로 52,은평구,37.6057697555028,126.916234407129
그레인서울(GRAINSEOUL),아시안/양식,서울특별시 서대문구 연희로11가길 53,서대문구,37.5662724262577,126.927437688603
우리집(돌곶이역점),한식,서울특별시 성북구 화랑로 246,성북구,37.6103528301874,127.0566324408
춘리마라탕(한성대점),찜탕,서울특별시 성북구 창경궁로 317,성북구,37.588183651831,127.004848544506
콩나물국밥,찜탕,서울특별시 성북구 삼선교로4길 119,성북구,37.5827590601771,127.0078732892
하루 한끼,분식,서울특별시 도봉구 우이천로48길 4,도봉구,37.6557591531793,127.016041782319
카페아모제,카페/디저트,서울특별시 강북구 도봉로 62,강북구,37.6145929759749,127.030517678336
땡큐춘자 해물칼국수,한식,서울특별시 노원구 동일로242가길 50,노원구,37.6781315029878,127.056080622572
좋은친구치킨호프,치킨,서울특별시 동대문구 한빛로 60,동대문구,37.5787061583485,127.029346939761
오늘주점,한식,서울특별시 광진구 능동로 69,광진구,37.5378412310188,127.068994278343
KSK공인중개사사무소,한식,서울특별시 종로구 자하문로 42,종로구,37.5797610006316,126.971588441294
그리움 맛나당,한식,서울특별시 용산구 보광로 27,용산구,37.5267961901315,127.000165169889
심,돈까스/일식,서울특별시 성동구 왕십리로24나길 8,성동구,37.5639830845569,127.03467019907
태곱이네,한식,서울특별시 동대문구 망우로18가길 43-1,동대문구,37.5884303445766,127.060852301651
육회이야기,회,서울특별시 광진구 광나루로52길 114,광진구,37.539012579616,127.089705830271
하루식품관,한식,서울특별시 광진구 능동로 7,광진구,37.5323407288608,127.066771358767
하루의정,한식,서울특별시 광진구 구의로 59,광진구,37.5432606144101,127.090176212869
김쉐프,중식,서울특별시 종로구 사직로8길 4,종로구,37.5746716527447,126.968429762772
생활맥주 대학로마로니에점,야식,서울특별시 종로구 대학로10길 11,종로구,37.5818529800135,127.002805312811
프랭크버거 종로평창점,패스트푸드,서울특별시 종로구 평창11길 3,종로구,37.606031361562,126.966618557614
더데일리카페인 을지로,카페/디저트,서울특별시 중구 마른내로2길 6,중구,37.5641465944328,126.992375982553
모와(MOWa),아시안/양식,서울특별시 중구 명동8나길 38,중구,37.5617094550686,126.982674651463
완도댁,한식,서울특별시 중구 명동길 73,중구,37.5644105705291,126.986233754442
짐빠 신당,한식,서울특별시 중구 퇴계로87길 15-8,중구,37.5662657751819,127.02078797183
리슨스픽드링크(LISTEN SPEAK DRINK),아시안/양식,서울특별시 용산구 이태원로16길 14-3,용산구,37.5334322711774,126.99109327319
더이음사랑방,한식,서울특별시 서대문구 신촌로 63,서대문구,37.5566117811394,126.933756229441
미스신두마리치킨 종암점,치킨,서울특별시 성북구 종암로28길 72-6,성북구,37.6002022917203,127.035015285157
Yeonsan,아시안/양식,서울특별시 도봉구 방학로17길 48,도봉구,37.6614810273612,127.021629252964
영수네만두 창동역점,한식,서울특별시 도봉구 마들로11길 73,도봉구,37.6532567533904,127.049060560533
탕화쿵푸마라탕 수유점,찜탕,서울특별시 강북구 도봉로 343,강북구,37.6385067563721,127.025726289061
동강,한식,서울특별시 성동구 동일로 143,성동구,37.5454284648551,127.065339810631
우화당 회기점,한식,서울특별시 동대문구 회기로 190,동대문구,37.5898221638972,127.056947499116
유즈호(Yuzuho),돈까스/일식,서울특별시 중구 충무로 51,중구,37.5657910103787,126.992497832713
헤이웨이브,치킨,서울특별시 중구 퇴계로87길 43-25,중구,37.567483262667,127.019906321499
드래곤힐 프린트샵,아시안/양식,서울특별시 용산구 한강대로 176,용산구,37.534166929831,126.973131908434
럭키호프,한식,서울특별시 용산구 한강대로15길 19-4 (한강로3가),용산구,37.5259872532321,126.963038206961
스마일김밥,도시락,서울특별시 서대문구 통일로40길 13,서대문구,37.5903119876915,126.943519977984
스시화 성북점,돈까스/일식,서울특별시 성북구 삼양로 35,성북구,37.606231004929,127.023773153729
INBITO(인비또),아시안/양식,서울특별시 노원구 상계로12길 35,노원구,37.6566148902484,127.069507250841
코너바,한식,서울특별시 성동구 성수일로1길 8,성동구,37.5417129532735,127.047784679124
편백집 청량리역사점,한식,서울특별시 동대문구 왕산로 214,동대문구,37.5841961381161,127.05114707633
카페이드인,카페/디저트,서울특별시 광진구 용마산로 47,광진구,37.5578057118259,127.087644089209
솥내음 광화문점,한식,서울특별시 종로구 새문안로 68,종로구,37.5696425113058,126.972139469043
진심옴므,아시안/양식,서울특별시 중구 서소문로 89-20,중구,37.5632510909133,126.972031493823
북바:&,아시안/양식,서울특별시 용산구 우사단로4길 30,용산구,37.5313733579409,126.9983932287
스쿠퍼,아시안/양식,서울특별시 용산구 한강대로62길 37,용산구,37.5332380352776,126.973698393164
낭만포차 한식점심부페,야식,서울특별시 성동구 왕십리로 311-1,성동구,37.5615751305274,127.03450236522
쉐프밥상,한식,서울특별시 은평구 통일로 838,은평구,37.6182287895423,126.922263981517
제이푸드,한식,서울특별시 은평구 응암로30길 16,은평구,37.5952285650967,126.91939457024
주식회사 이클리온 쏠페스타,아시안/양식,서울특별시 서대문구 이화여대1길 10,서대문구,37.5576463618721,126.944912043171
주카(ZUKA),한식,서울특별시 서대문구 이화여대길 72-10,서대문구,37.5595116194001,126.944555739056
타이스타일(Thai style),아시안/양식,서울특별시 서대문구 연희로 204,서대문구,37.5751168214624,126.935594673518
근본푸드,한식,서울특별시 중랑구 상봉중앙로8가길 48,중랑구,37.6003236633419,127.090318420783
동네순대국,찜탕,서울특별시 중랑구 사가정로 379,중랑구,37.5810077584295,127.08682083184
두리당 김밥,도시락,서울특별시 중랑구 면목로48길 37,중랑구,37.5822683789334,127.090720477178
계모임,한식,서울특별시 성북구 보문로30라길 5-10,성북구,37.5895699879413,127.019204319645
피자마루업,피자,서울특별시 도봉구 시루봉로 64,도봉구,37.6564817347697,127.028110647016
계혁명,치킨,서울특별시 노원구 덕릉로 459-37,노원구,37.6468005039827,127.059592952406
강릉 메밀촌,한식,서울특별시 성북구 정릉로26길 21,성북구,37.6040391022345,127.01156398401
숙성회136 중랑점,회,서울특별시 중랑구 상봉중앙로5길 28,중랑구,37.6004510345049,127.085891399909
츠루츠루,돈까스/일식,서울특별시 성북구 삼선교로24길 41,성북구,37.5884374788736,127.016572153313
닭치고먹어봐,치킨,서울특별시 노원구 상계로37길 2,노원구,37.6705700525154,127.07901723432
WILLOW COFFEE (윌로우 커피),카페/디저트,서울특별시 은평구 갈현로 213,은평구,37.6163740042672,126.913938851554
빽보이피자 외대앞점,피자,서울특별시 동대문구 이문로 102,동대문구,37.5958819629253,127.060041268747
카페 하멜른,카페/디저트,서울특별시 동대문구 망우로18가길 53,동대문구,37.5878623044137,127.060607958148
맥주짠,야식,서울특별시 광진구 면목로 195,광진구,37.5705440453956,127.083087020661
명품육사 우향우,한식,서울특별시 광진구 능동로13길 88,광진구,37.5455037246349,127.068628822449
옹수육 자양본점,한식,서울특별시 광진구 자양번영로13길 3,광진구,37.5374027186753,127.07672684169
회사랑 스시감동,돈까스/일식,서울특별시 광진구 광나루로 369,광진구,37.5484610827889,127.071049482737
금커피별빙수 사가정역점,카페/디저트,서울특별시 중랑구 면목로45길 3-6,중랑구,37.5814281329842,127.088196853582
동궁찜닭,찜탕,서울특별시 중랑구 상봉중앙로5다길 48,중랑구,37.5982375880785,127.086361511305
카페차 주식회사,카페/디저트,서울특별시 용산구 이태원로 244,용산구,37.5364813223241,127.00050055211
버치커피,카페/디저트,서울특별시 성동구 성수이로16길 27,성동구,37.5405440831839,127.059673142014
본말감자탕 뚝섬역점,찜탕,서울특별시 성동구 아차산로 49,성동구,37.5467876194278,127.050037317792
포촤로와,한식,서울특별시 은평구 통일로85길 6,은평구,37.6222304482775,126.919066720164
히동이치킨 구산점,치킨,서울특별시 은평구 갈현로 135,은평구,37.6100187288397,126.910940022075
지코바 월곡점,치킨,서울특별시 성북구 오패산로10길 30,성북구,37.605126220402,127.038437360276
피플스(peoples),아시안/양식,서울특별시 성북구 동소문로 225-9,성북구,37.6022664422336,127.021561930697
한반도,한식,서울특별시 성북구 고려대로24가길 14,성북구,37.5851836380108,127.03019363855
편하게김밥,도시락,서울특별시 강북구 도봉로34길 16,강북구,37.6219222575943,127.029031800028
Cafe bitt(카페 빛),카페/디저트,서울특별시 은평구 통일로 807,은평구,37.6159364125655,126.923933514789
이성닭곰탕,찜탕,서울특별시 은평구 통일로 909,은평구,37.6242642948357,126.919665112882
차차닭발,치킨,서울특별시 은평구 은평로9길 13,은평구,37.6013680588223,126.921205947636
밥도둑한끼뚝딱 건대점,한식,서울특별시 광진구 광나루로 380,광진구,37.5476159822886,127.071882907152
혼밥대왕 건대점,한식,서울특별시 광진구 광나루로 380,광진구,37.5476159822886,127.071882907152
후타리 본,돈까스/일식,서울특별시 광진구 아차산로31길 20-6,광진구,37.5417027430144,127.069902038614
비비큐 망우점,치킨,서울특별시 중랑구 봉우재로71길 83,중랑구,37.5971790565582,127.095431437268
인쌩맥주 중랑역점,야식,서울특별시 중랑구 중랑천로12길 30,중랑구,37.5925990085216,127.074594972362
족발구역 (상봉점),족발/보쌈,서울특별시 중랑구 동일로112길 3,중랑구,37.592822197006,127.081131391465
(유)아웃백스테이크하우스코리아 광화문D타워점,아시안/양식,서울특별시 종로구 종로3길 17,종로구,37.5709958592808,126.978914477333
까브레뱅(CAVE LESVINS),아시안/양식,서울특별시 종로구 세종대로 169,종로구,37.5715034386611,126.976320410134
메르깟(MERCAT),아시안/양식,서울특별시 종로구 세종대로 169,종로구,37.5715034386611,126.976320410134
무봉리토종순대국,찜탕,서울특별시 종로구 새문안로5길 37,종로구,37.5736488068784,126.974213175414
자담치킨 서울서대문역점,치킨,서울특별시 종로구 경교장길 35,종로구,37.5688537151032,126.965114852628
백두산참숯불고기,한식,서울특별시 중구 퇴계로78길 37,중구,37.5636510144999,127.016685845832
주마등,한식,서울특별시 중구 충무로5길 23,중구,37.5653486365681,126.991400516159
간장다이닝,한식,서울특별시 용산구 새창로 128-4,용산구,37.5361447765814,126.960787169156
츠키노리,돈까스/일식,서울특별시 용산구 신흥로 103-1,용산구,37.5448322999717,126.984462143487
단길,아시안/양식,서울특별시 성동구 왕십리로6길 14-1,성동구,37.545800590461,127.046242444723
술인,치킨,서울특별시 서대문구 통일로 421,서대문구,37.586831973973,126.945978707314
연희순대국,찜탕,서울특별시 서대문구 증가로 131,서대문구,37.5772805104323,126.923024751681
올나잇,치킨,서울특별시 종로구 우정국로2길 32,종로구,37.5694356957486,126.984773412694
설죽 앤 도시락,한식,서울특별시 중구 삼일대로 363,중구,37.5671565387212,126.987052299704
정이가네(삼광상회),한식,서울특별시 중구 퇴계로85길 2,중구,37.5658961743952,127.019811046646
차이(chai)797 DINING 광화문 SFC점,중식,서울특별시 중구 세종대로 136,중구,37.5684232177354,126.97825653257
당스,아시안/양식,서울특별시 용산구 한강대로7길 23-5,용산구,37.5244247092393,126.961545934666
슬로우앤로 남영역점,아시안/양식,서울특별시 용산구 청파로 247,용산구,37.5417233269798,126.970401766599
스컹크,치킨,서울특별시 성동구 왕십리로21길 17,성동구,37.5608985028784,127.032849715041
숙성회136,돈까스/일식,서울특별시 광진구 군자로 179-2,광진구,37.556809211773,127.07800716956
카페시안,카페/디저트,서울특별시 광진구 구의강변로 106,광진구,37.53985699394,127.09489656845
꾸워봐,한식,서울특별시 동대문구 장한로 186,동대문구,37.5768355392294,127.072370148565
라멘짱 청량리역점,돈까스/일식,서울특별시 동대문구 왕산로 214,동대문구,37.5841961381161,127.05114707633
효효,아시안/양식,서울특별시 성북구 삼양로 35,성북구,37.606231004929,127.023773153729
김밥은...,도시락,서울특별시 강북구 삼양로19길 25,강북구,37.6156943247238,127.021139026425
하이쿠모,한식,서울특별시 서대문구 증가로29길 40,서대문구,37.5812723639305,126.91145905125
"고,끼미국수",한식,서울특별시 광진구 영화사로 39,광진구,37.5564721693285,127.091299207486
스키야끼 동아리,돈까스/일식,서울특별시 중구 남대문로 114-1,중구,37.56738911588,126.983024342668
공덕만리,한식,서울특별시 용산구 효창원로 270,용산구,37.551333402833,126.963695982735
루라운지,한식,서울특별시 용산구 한강대로44길 5,용산구,37.5311348836415,126.970500533465
퍼주에,아시안/양식,서울특별시 성동구 독서당로47길 12-1,성동구,37.5479668088356,127.019617659425
최이순 홍어무침,한식,서울특별시 도봉구 덕릉로57길 52,도봉구,37.6404654101484,127.036040636977
모담김밥,도시락,서울특별시 강북구 삼양로27길 19,강북구,37.6161238065432,127.021741379374
우리소곰탕,찜탕,서울특별시 은평구 서오릉로 21,은평구,37.6030269052655,126.925559615072
돈냄새,한식,서울특별시 서대문구 통일로37길 12,서대문구,37.5877840964672,126.944136571927
수상한 키친,돈까스/일식,서울특별시 동대문구 한천로58길 47,동대문구,37.6007507501532,127.068769452719
양양면옥,한식,서울특별시 광진구 뚝섬로 595,광진구,37.5332088120956,127.076200292098
제육과콩나물,한식,서울특별시 광진구 광나루로 369,광진구,37.5484610827889,127.071049482737
서촌,한식,서울특별시 종로구 자하문로 55,종로구,37.5808974648923,126.97065027554
패스포트,아시안/양식,서울특별시 용산구 한강대로 206-21,용산구,37.5365940389561,126.974735092296
메가엠지씨커피 월계프라자점,카페/디저트,서울특별시 노원구 초안산로5길 12,노원구,37.6325606295737,127.051747902831
별빛 마라탕,찜탕,서울특별시 서대문구 모래내로 353,서대문구,37.5815380074522,126.935396793876
민들레슈퍼 가맥,아시안/양식,서울특별시 동대문구 회기로 148-8,동대문구,37.5911292893471,127.052553235605
상봉돈까스,한식,서울특별시 중랑구 면목로 485,중랑구,37.595210898234,127.085606482423
마일품마라탕,찜탕,서울특별시 성북구 동소문로46길 18,성북구,37.6068583127175,127.029938182637
대만도삭우육면(뚝섬점),아시안/양식,서울특별시 성동구 성수일로 99,성동구,37.5494701203274,127.051187389199
장미술상 외갓집건대점,한식,서울특별시 광진구 군자로 14-1,광진구,37.5447547347823,127.071496104333
쓰촨샤브샤브,중식,서울특별시 중구 다산로39길 45,중구,37.5645723413905,127.01340090717
쭈소바,한식,서울특별시 중구 서소문로 89-20,중구,37.5632510909133,126.972031493823
도봉누룽지통닭,치킨,서울특별시 도봉구 도봉로181길 38,도봉구,37.6844021132017,127.04378129342
주식회사 청년찌개 도봉쌍문점,찜탕,서울특별시 도봉구 도봉로133길 9,도봉구,37.6572922851424,127.039087653089
윤스푸드,한식,서울특별시 강북구 도봉로102길 60-5,강북구,37.6407346148227,127.032669787881
고레와 참치,한식,서울특별시 은평구 불광천길 470,은평구,37.5948292064462,126.915600338594
대한냉면,한식,서울특별시 은평구 연서로31길 3-2,은평구,37.6204782649626,126.923195905516
아오바,한식,서울특별시 은평구 갈현로31길 6-1,은평구,37.6200576905681,126.91518013559
방앗간커피,카페/디저트,서울특별시 서대문구 신촌로 143,서대문구,37.5567546605539,126.941753297328
올데이수프 북아현점,아시안/양식,서울특별시 서대문구 신촌로 221,서대문구,37.5572712555344,126.950563654947
비비큐(BBQ) 전농행복점,치킨,서울특별시 동대문구 답십리로23길 30,동대문구,37.5767163112994,127.049782134969
삼청당 장안점,분식,서울특별시 동대문구 장한로12길 48,동대문구,37.5649265057064,127.070199231869
육복,한식,서울특별시 동대문구 장한로 48,동대문구,37.5652438881592,127.067483806252
헤이마오차이 외대점,중식,서울특별시 동대문구 휘경로 18,동대문구,37.5955965286005,127.061787562478
포앤시드니 신내 SK V1 센터점,아시안/양식,서울특별시 중랑구 신내역로 111,중랑구,37.613121773853,127.11244192431
맵찔이,한식,서울특별시 성북구 삼선교로10길 8,성북구,37.5875925458179,127.008887588167
보문745,아시안/양식,서울특별시 성북구 보문로15길 11,성북구,37.5806258864775,127.020986574294
화포식당 장위뉴타운점,한식,서울특별시 성북구 돌곶이로40길 46,성북구,37.6198223851288,127.049660439134
버터,아시안/양식,서울특별시 용산구 이태원로27가길 54-3,용산구,37.5350521594638,126.992059091468
신당동 그놈,한식,서울특별시 중구 다산로31길 25,중구,37.5619520181839,127.01300067477
계주,한식,서울특별시 광진구 동일로28길 8,광진구,37.54662187706,127.067196676193
뒷고기클라쓰,한식,서울특별시 광진구 아차산로51길 96,광진구,37.5411396252921,127.085501398584
리또리또,아시안/양식,서울특별시 종로구 홍지문2길 7,종로구,37.6009850135082,126.9559340237
베이커리 립,카페/디저트,서울특별시 종로구 통일로 230,종로구,37.574374261303,126.958604295236
바구스,한식,서울특별시 은평구 수색로22길 9,은평구,37.5862214553409,126.889286659937
매일식품관,한식,서울특별시 동대문구 왕산로 214,동대문구,37.5841961381161,127.05114707633
삼청당 경희대점,한식,서울특별시 동대문구 경희대로4길 22,동대문구,37.5921878850293,127.053709368288
카페심실,카페/디저트,서울특별시 동대문구 약령시로 28-5,동대문구,37.5825561426419,127.032634271873
담화,돈까스/일식,서울특별시 중랑구 망우로48길 15,중랑구,37.596193174776,127.088155282155
미화회관,한식,서울특별시 중랑구 봉우재로25길 18-3,중랑구,37.5931107501207,127.083760573525
신의주 찹쌀순대,한식,서울특별시 성북구 삼양로 25-1,성북구,37.605466547235,127.024058637904
느네집,한식,서울특별시 용산구 이태원로20가길 16,용산구,37.5334588919931,126.993050367885
한스김밥,도시락,서울특별시 용산구 후암로 107,용산구,37.5534616592161,126.97356408407
양평 민물매운탕,찜탕,서울특별시 성동구 마장로 293-2,성동구,37.5660660950461,127.042406302702
국수전,한식,서울특별시 광진구 영화사로13길 4,광진구,37.5547110984147,127.093917787795
갓튀김닭 방학점,분식,서울특별시 도봉구 방학로 150-1,도봉구,37.6628439207187,127.035485792681
김치찜에 진심 직영점,찜탕,서울특별시 서대문구 연세로7안길 52,서대문구,37.5585451478122,126.934090656619
투다리 연신내점,치킨,서울특별시 은평구 연서로26길 3-8,은평구,37.6175053509491,126.920453250347
늘,한식,서울특별시 성북구 월곡로5길 60,성북구,37.598999467213,127.036507781477
어물전청 한남,한식,서울특별시 용산구 한남대로 104,용산구,37.5377482946181,127.004996440907
오스테리아 안나,아시안/양식,서울특별시 용산구 녹사평대로 210-7,용산구,37.5365221017929,126.987442856035
지금 보고싶다 한남동점,한식,서울특별시 용산구 대사관로30길 9,용산구,37.5328051937362,127.005675398504
송롱푸드(Songlong food),아시안/양식,서울특별시 광진구 동일로18길 53,광진구,37.5393423264103,127.065946748683
종로김치삼겹살,한식,서울특별시 종로구 우정국로2길 21,종로구,37.5697034972222,126.984281413033
콜렉티보 그랜드센트럴점,아시안/양식,서울특별시 중구 세종대로 14,중구,37.5578385325826,126.9744151
호반포차,야식,서울특별시 강북구 삼양로24길 55,강북구,37.618621902395,127.022614504954
남다른밥상 1호점 (쭈야),한식,서울특별시 노원구 중계로16가길 17,노원구,37.6508525454245,127.082155642783
피자테리아(PizzaTeria),피자,서울특별시 동대문구 망우로12가길 33,동대문구,37.5890681065433,127.060950306935
마라탕전문점 샹츠마라 상봉점,찜탕,서울특별시 중랑구 면목로92길 42,중랑구,37.5957129655925,127.08812969087
탕국밥,찜탕,서울특별시 강북구 삼각산로 78,강북구,37.6400201670208,127.01290787639
COZY,한식,서울특별시 도봉구 우이천로24길 26,도봉구,37.6445085789919,127.031298483528
두텁,돈까스/일식,서울특별시 용산구 신흥로36길 1,용산구,37.5466017454397,126.981755894704
풀리김밥 성수점,도시락,서울특별시 성동구 성수일로10길 26,성동구,37.5465865067207,127.052952183671
시티펫카페,카페/디저트,서울특별시 종로구 평창문화로 84,종로구,37.6065673142822,126.970504064967
에이츠,한식,서울특별시 종로구 종로 316-1,종로구,37.5720247998631,127.012925903352
지금이서촌,치킨,서울특별시 종로구 자하문로15길 13,종로구,37.580660576615,126.970222542239
알덴트(Ardent),아시안/양식,서울특별시 중구 을지로 157,중구,37.5671458986322,126.995451191045
영동골방,한식,서울특별시 중구 필동로 25,중구,37.5593304171107,126.996376000997
치비(CHIBI),한식,서울특별시 중구 퇴계로87길 49-21,중구,37.5677354251226,127.02006146157
고토히라우동,돈까스/일식,서울특별시 중구 남대문로 81,중구,37.5647299033135,126.981730421825
구정옥 명동직영점,한식,서울특별시 중구 명동9길 35,중구,37.5653073336516,126.984095462949
부장님댁,한식,서울특별시 중구 충무로5길 27,중구,37.5654021432149,126.991230274629
연남물갈비 명동점,한식,서울특별시 중구 명동7길 21,중구,37.5647312946952,126.983858910559
늘해돈,돈까스/일식,서울특별시 노원구 상계로1길 38-11,노원구,37.6579692388731,127.062090238273
제육의 법칙 노원점,한식,서울특별시 노원구 상계로1길 28-10,노원구,37.6574521317128,127.062154177944
피자와 치킨의 러브레터 공릉점,피자,서울특별시 노원구 동일로182길 37-21,노원구,37.6236563206919,127.075963679529
명랑꼬마김밥,도시락,서울특별시 서대문구 세무서8길 30,서대문구,37.5906011767845,126.946952109235
화양곱창,한식,서울특별시 은평구 서오릉로 29,은평구,37.6034743861265,126.925067794563
일구팔팔(1988),한식,서울특별시 동대문구 휘경로2길 13,동대문구,37.5954054204314,127.060936225757
호시타코야끼 휘경점,분식,서울특별시 동대문구 망우로18가길 52,동대문구,37.5879931888793,127.060490312769
카페네모,카페/디저트,서울특별시 중랑구 공릉로14길 20-13,중랑구,37.6174579718908,127.080853463477
미아리우동집 본점,돈까스/일식,서울특별시 성북구 종암로 176,성북구,37.6056324955088,127.031740734151
우리만두전골,찜탕,서울특별시 강북구 도봉로 274-1,강북구,37.6330066475767,127.023788251797
더 비틀즈 라이브 펍(The Beatles Live Pub),아시안/양식,서울특별시 용산구 이태원로 243,용산구,37.5368027102701,127.000015614034
두들피스,아시안/양식,서울특별시 용산구 원효로89길 23,용산구,37.5407357607493,126.967725341072
에그쉘,아시안/양식,서울특별시 용산구 소월로40길 45,용산구,37.5420425273068,126.991451396937
웨이브오삼일(Wave531),아시안/양식,서울특별시 용산구 한강대로80길 11-8,용산구,37.5428966741426,126.973725212688
한스키친랩,한식,서울특별시 용산구 회나무로 34,용산구,37.5396270442878,126.990378450245
호산나 떡볶이,분식,서울특별시 용산구 이촌로88길 3,용산구,37.5180294947051,126.978694898683
89분식 89BUNSIK,분식,서울특별시 성동구 성덕정9가길 2,성동구,37.5394682772909,127.050209731062
리윤 스시모리,돈까스/일식,서울특별시 성동구 왕십리로 83-21,성동구,37.5441547484979,127.043357753557
순살의민족,치킨,서울특별시 광진구 면목로 63,광진구,37.5595461679788,127.077600652485
서촌주점(서촌酒점),치킨,서울특별시 종로구 자하문로7길 59,종로구,37.5798790619477,126.969197847201
미 갈매기살,한식,서울특별시 종로구 돈화문로 49,종로구,37.5729148249161,126.991239015743
카페 경복궁,카페/디저트,서울특별시 종로구 자하문로2길 3,종로구,37.5766852207712,126.972881850637
로우앤에이징(Low&Aging),아시안/양식,서울특별시 노원구 상계로5길 3,노원구,37.6567882677746,127.063879027884
엄마표 김치찌개와 집밥,찜탕,서울특별시 은평구 가좌로 169,은평구,37.5864487257196,126.921484800353
우정회관,한식,서울특별시 은평구 응암로 287-1,은평구,37.5973996799208,126.919786065961
하레텐,한식,서울특별시 은평구 연서로2길 22,은평구,37.6008877102981,126.918637896303
광주식당,한식,서울특별시 동대문구 제기로5길 35,동대문구,37.5880221796262,127.03520352901
수유리혼밥왕&국제시장국밥,찜탕,서울특별시 동대문구 답십리로66길 94,동대문구,37.5687712830104,127.066055996362
부자촌,한식,서울특별시 중랑구 중랑역로3길 56,중랑구,37.5945596980188,127.073378660565
왕코 등 갈비,한식,서울특별시 중랑구 봉우재로 113,중랑구,37.5927235571465,127.085570456838
도레미 닭발,한식,서울특별시 성북구 동소문로24가길 17,성북구,37.5916727607383,127.019527447069
인(포차),야식,서울특별시 성북구 종암로38길 16,성북구,37.6063106006634,127.032330263975
경성 마라탕,찜탕,서울특별시 성북구 서경로 96,성북구,37.6115711409422,127.013751149625
샾카페,카페/디저트,서울특별시 도봉구 도당로27길 77,도봉구,37.6708542796114,127.040748518168
푸드이슈(Food issue),아시안/양식,서울특별시 용산구 신흥로 97-4,용산구,37.5452666383266,126.984899408877
파르코 무수막,아시안/양식,서울특별시 성동구 독서당로51길 29,성동구,37.5505615906145,127.026147450059
상황버섯 삼계탕,찜탕,서울특별시 광진구 천호대로 632,광진구,37.5536949418835,127.087359969705
세인트바츠,아시안/양식,서울특별시 광진구 아차산로49길 41-5,광진구,37.5386599028315,127.083982045111
카페나리랑(Cafe NARiRANG),카페/디저트,서울특별시 광진구 능동로37길 9,광진구,37.5579413330556,127.079197614755
쥬케로카페 명동점,카페/디저트,서울특별시 중구 퇴계로20길 43,중구,37.5584123972839,126.986513275513
역전우동0410 하계을지병원점,돈까스/일식,서울특별시 노원구 공릉로65길 7,노원구,37.635496244603,127.070637174803
오늘닭강정 동교동삼거리점,한식,서울특별시 서대문구 신촌로 5,서대문구,37.5586807985434,126.927711246319
미리내,한식,서울특별시 은평구 갈현로4길 25,은평구,37.601279414686,126.913136817953
세현푸드,한식,서울특별시 동대문구 전농로17길 18,동대문구,37.5787862945452,127.056122066095
스마일테이블,분식,서울특별시 동대문구 회기로8길 48,동대문구,37.5910201015175,127.041689009663
왕산포차,야식,서울특별시 동대문구 왕산로 276,동대문구,37.5851489560307,127.05131381948
감탄떡볶이 돈암한신점,분식,서울특별시 성북구 성북로4길 52,성북구,37.5944725333435,127.012706037821
죽도령 정릉점,한식,서울특별시 성북구 정릉로26길 54,성북구,37.6028491344044,127.012730337876
스노우폭스 타르타르 쌍문3스타점,돈까스/일식,서울특별시 도봉구 도봉로 445,도봉구,37.6458670929817,127.032590678837
(주)동원홈푸드 바른손이엔에이,한식,서울특별시 용산구 한남대로 130,용산구,37.5399440547662,127.004427556463
코르바니 사운즈한남,아시안/양식,서울특별시 용산구 대사관로 35,용산구,37.5337501903567,127.00214819989
인찜 인생최고의찜닭(중곡점),찜탕,서울특별시 광진구 긴고랑로2길 42,광진구,37.5622913940944,127.076109475129
달랭이,한식,서울특별시 종로구 돈화문로11나길 16,종로구,37.5735516071257,126.990702935596
밸런스포케,아시안/양식,서울특별시 종로구 창덕궁1길 42,종로구,37.5794270728626,126.98682251057
업사이드 베이커리,카페/디저트,서울특별시 중구 을지로 167,중구,37.5668016669616,126.996606321385
단테(Dante),아시안/양식,서울특별시 용산구 원효로52길 9,용산구,37.5350309709716,126.962203730643
백순대본가새맛 노원점,한식,서울특별시 노원구 동일로 1365,노원구,37.6506100117206,127.061234228831
원조 뼈다귀 감자탕,찜탕,서울특별시 노원구 한글비석로24길 52,노원구,37.6627428266387,127.073083729238
동네포차,야식,서울특별시 은평구 응암로22길 16,은평구,37.5934685246992,126.919727102814
깐깐꼬치,한식,서울특별시 서대문구 수색로 144,서대문구,37.5753161142479,126.905244332721
카페 드 프랑스(cafe de France),카페/디저트,서울특별시 서대문구 통일로9길 8,서대문구,37.5672707678763,126.964550427003
홍제동우동국수,돈까스/일식,서울특별시 서대문구 가재울미래로 2,서대문구,37.5744203632344,126.917897379411
폰드(FOND),아시안/양식,서울특별시 동대문구 망우로20가길 3,동대문구,37.589966352171,127.063259482741
금수저,한식,서울특별시 성북구 장위로 165,성북구,37.615141091148,127.054622922051
카페 녹천,카페/디저트,서울특별시 도봉구 노해로66길 127,도봉구,37.6458046455312,127.049243300519
bbq 마장행복점,치킨,서울특별시 성동구 고산자로 339,성동구,37.5699137996348,127.037329300601
계맛집 닭갈비,한식,서울특별시 성동구 마조로3가길 12,성동구,37.5590198519006,127.040085200397
디스코너49,아시안/양식,서울특별시 성동구 광나루로 275,성동구,37.5485203579781,127.060383486255
바다생협 자양점,회,서울특별시 광진구 뚝섬로 585,광진구,37.5335848164556,127.075048567096
직화삼겹직구삼 건대점,한식,서울특별시 광진구 광나루로 361,광진구,37.5484457321993,127.069745720123
화양그린,아시안/양식,서울특별시 광진구 능동로16길 4-3,광진구,37.5447176369216,127.073512528662
60초 피자(대학로점),피자,서울특별시 종로구 대학로 81-1,종로구,37.5785001293549,127.001915143821
와하Waaha,아시안/양식,서울특별시 종로구 창경궁로26길 38-13,종로구,37.5817216484272,126.999889956848
창신방앗간,한식,서울특별시 종로구 종로51길 36,종로구,37.573492498429,127.011392627678
홈브루하우스(MYBL HOMEBREW HAUS),치킨,서울특별시 종로구 북촌로5가길 24,종로구,37.5805874536663,126.981979914813
제주스,한식,서울특별시 중구 을지로 100,중구,37.5656490167105,126.988142568678
테일러박스 용산직영점,아시안/양식,서울특별시 용산구 한강대로 69,용산구,37.5270404595814,126.964892234354
김가네김밥 공릉점,도시락,서울특별시 노원구 공릉로38길 12,노원구,37.6231142045176,127.080040944709
발리다 포차 (불광점),야식,서울특별시 은평구 통일로66길 10-1,은평구,37.6105961016293,126.931481407382
원주율,한식,서울특별시 서대문구 증가로 112,서대문구,37.5768929934691,126.925127042355
진사골,한식,서울특별시 서대문구 이화여대7길 30,서대문구,37.5588306073179,126.943901845804
활어시장,돈까스/일식,서울특별시 서대문구 가재울미래로 2,서대문구,37.5744203632344,126.917897379411
불아더숯불바베큐,한식,서울특별시 중랑구 상봉로26길 4,중랑구,37.5952882320279,127.093409953666
수랏간감자탕,찜탕,서울특별시 중랑구 동일로 761,중랑구,37.5983967420166,127.079777451421
힘센낙지문어회,한식,서울특별시 중랑구 공릉로12가길 6,중랑구,37.6163424774824,127.080165526507
동원회 수산시장,한식,서울특별시 성북구 화랑로 245,성북구,37.6108915787201,127.056534088948
지창우 낙곱새,한식,서울특별시 성북구 화랑로5길 36,성북구,37.6041620632254,127.039281687639
능이왕갈비탕,찜탕,서울특별시 강북구 수유로 19,강북구,37.6327085471457,127.018569546737
콩사랑두부,한식,서울특별시 도봉구 도봉산4길 10,도봉구,37.6878113553822,127.042458633496
다이너,아시안/양식,서울특별시 성동구 왕십리광장로 17,성동구,37.5614417528647,127.038394194396
효자동설렁탕 왕십리뉴타운점,찜탕,서울특별시 성동구 왕십리로 410,성동구,37.566590498762,127.02408246322
그랩 건대점,돈까스/일식,서울특별시 광진구 자양로28길 12,광진구,37.542258485148,127.084878748503
더푸드,한식,서울특별시 광진구 뚝섬로 596,광진구,37.5329550774725,127.075940379167
유나'스 커피(YUNA'S COFFEE),카페/디저트,서울특별시 광진구 광나루로 442,광진구,37.5454177687029,127.078466601858
회식의달인,한식,서울특별시 동대문구 장한로2길 66,동대문구,37.5614630498901,127.068866654433
목식당,중식,서울특별시 종로구 백석동길 13,종로구,37.5932496330015,126.965668714904
삐삣버거(광화문점),패스트푸드,서울특별시 중구 을지로3길 25-6,중구,37.5673664868336,126.981150237991
팀호완 명동점,아시안/양식,서울특별시 중구 명동8가길 27,중구,37.5620005331406,126.986563787577
삼각포차,야식,서울특별시 용산구 한강대로 166-1,용산구,37.5335300463688,126.972497193953
광장시장 고구마,한식,서울특별시 종로구 종로32길 22,종로구,37.5699083442873,127.00103335931
부타스시,돈까스/일식,서울특별시 서대문구 세무서길 49,서대문구,37.5902693561254,126.945991282011
덮밥장사장 노원점,돈까스/일식,서울특별시 노원구 상계로 97,노원구,37.6570616356487,127.065665868534
거봉만두,한식,서울특별시 은평구 서오릉로 174,은평구,37.6130699215809,126.914464337641
돈까스집이야 역촌점,한식,서울특별시 은평구 응암로 360,은평구,37.6031347679052,126.922777064771
쌀국수집이야 역촌점,아시안/양식,서울특별시 은평구 응암로 360,은평구,37.6031347679052,126.922777064771
EDR CLUB 이디알클럽,중식,서울특별시 성북구 고려대로26길 55,성북구,37.583850663977,127.03001580339
육이구낙곱새 종암직영점,한식,서울특별시 성북구 종암로19길 42,성북구,37.5980560556249,127.032442760826
진미김밥,도시락,서울특별시 성북구 돌곶이로37길 18,성북구,37.6167464173398,127.047458650618
어쩌라구,치킨,서울특별시 강북구 삼각산로 98-1,강북구,37.6404689523935,127.015140460728
인생소곱창,한식,서울특별시 강북구 솔매로 118-1,강북구,37.6259041264098,127.025309378844
커피베이 방학성원점,카페/디저트,서울특별시 도봉구 방학로 131,도봉구,37.662533238129,127.037881562104
할매북어국집,한식,서울특별시 중랑구 동일로139길 13,중랑구,37.6033273381668,127.078137594339
아키스시,돈까스/일식,서울특별시 성동구 마조로9길 3,성동구,37.5611237377333,127.04096586437
안주상회 회기점,회,서울특별시 동대문구 회기로 143,동대문구,37.5917228127148,127.052463523261
삼고,한식,서울특별시 중구 퇴계로 411-26,중구,37.56629017142,127.017589575582
올디스타코,아시안/양식,서울특별시 중구 충무로4길 3,중구,37.5650738471098,126.99297974561
우주,한식,서울특별시 중구 충무로5길 27,중구,37.5654021432149,126.991230274629
마음집2,아시안/양식,서울특별시 용산구 한강대로10길 11-76,용산구,37.5246868787191,126.964949108841
봉래축산,한식,서울특별시 중구 만리재로35길 6,중구,37.55554265681,126.967627059412
참맛집에프엔비,한식,서울특별시 중구 삼일대로 343,중구,37.5651004556362,126.986959615068
더바스켓 상봉역점,치킨,서울특별시 중랑구 망우로 304,중랑구,37.5961443260891,127.086347315587
동원사거리점 비비큐,치킨,서울특별시 중랑구 겸재로 240,중랑구,37.5896366083419,127.09416998992
밀리언달러키친,한식,서울특별시 중랑구 용마산로79길 40,중랑구,37.5850152637491,127.091269408478
홍보석분식당,분식,서울특별시 중랑구 중랑천로12길 59,중랑구,37.5931464692233,127.076118920596
사이드워커,아시안/양식,서울특별시 성동구 성수일로3길 7-7,성동구,37.5420325732067,127.047919761568
죽이야기 중곡역점,한식,서울특별시 광진구 능동로 400,광진구,37.5650580830652,127.08445683899
미드나잇마켓,아시안/양식,서울특별시 용산구 보광로60길 7,용산구,37.5340841745651,126.994534381258
서울 마약 식당,한식,서울특별시 노원구 동일로239가길 12,노원구,37.6756578909418,127.054876850446
이름없는 포차,야식,서울특별시 노원구 동일로241길 11,노원구,37.6766258741607,127.054744708796
바와치,한식,서울특별시 은평구 진흥로 50-8,은평구,37.6010885515241,126.920638105134
강레오의 차돌집(길음점),한식,서울특별시 성북구 삼양로 26,성북구,37.6054975179981,127.024608585707
정드린치킨,치킨,서울특별시 성북구 장월로 96,성북구,37.6143298772405,127.048782399622
크라운호프 쌍문역점,치킨,서울특별시 도봉구 노해로60길 89,도봉구,37.6475295394546,127.033088735674
업사이드커피(을지로),카페/디저트,서울특별시 중구 을지로 167,중구,37.5668016669616,126.996606321385
고향촌,한식,서울특별시 중랑구 면목로74길 45,중랑구,37.5898383414266,127.089893155552
가우,한식,서울특별시 성동구 금호로 40,성동구,37.5467055409212,127.025532888335
리앤리 푸드,아시안/양식,서울특별시 성동구 무학봉25길 6-1,성동구,37.5624442289115,127.031616915161
담미온수육국밥,찜탕,서울특별시 광진구 동일로 260,광진구,37.5546504899672,127.071346663496
마실,아시안/양식,서울특별시 광진구 광장로1나길 14,광진구,37.5485970226202,127.102053888326
무애(無碍),아시안/양식,서울특별시 광진구 뚝섬로26길 5,광진구,37.5360958447878,127.064638885789
소월,아시안/양식,서울특별시 용산구 한강대로 205,용산구,37.5366835309492,126.972808655459
구구족 증산 북가좌점,한식,서울특별시 서대문구 증가로 228-1,서대문구,37.5821392578443,126.914084809289
규니왕타코,돈까스/일식,서울특별시 서대문구 신촌역로 4,서대문구,37.5571114864975,126.94311045086
외할머니,한식,서울특별시 서대문구 충정로6길 59,서대문구,37.5627971715352,126.968130873869
빽보이 피자 노원역점,피자,서울특별시 노원구 상계로1길 14-11,노원구,37.6569098278246,127.061816690873
김종구식맛치킨.옛날통닭 진관점,치킨,서울특별시 은평구 진관3로 70,은평구,37.6422598317106,126.923141080933
알키미스타(Alquimistar)3,한식,서울특별시 은평구 증산로 251,은평구,37.5806722030865,126.905858170517
고래맥주창고 한성대점,야식,서울특별시 성북구 삼선교로10나길 3,성북구,37.5866256407125,127.009525244539
용두리 대광어,회,서울특별시 성북구 정릉로10길 42-2,성북구,37.6080388018353,126.999586739816
방학동 왕족발 보쌈,족발/보쌈,서울특별시 도봉구 도당로13길 41,도봉구,37.6662765406367,127.034360473102
니하오마라탕 사가정역점,찜탕,서울특별시 중랑구 용마산로51길 52,중랑구,37.5803127229845,127.089129981009
비피컴퍼니(BP company),아시안/양식,서울특별시 중랑구 봉우재로 189,중랑구,37.5945068000675,127.093980234582
우중충,한식,서울특별시 중랑구 동일로 932,중랑구,37.6138393830212,127.077557139207
서울떡갈비&우이락 신세계백화점본점,한식,서울특별시 중구 소공로 63,중구,37.560919019936,126.980979034083
덕수궁커피,카페/디저트,서울특별시 중구 정동길 2-2,중구,37.5678739145693,126.969458152898
본우리집밥 서울유스호스텔점,한식,서울특별시 중구 퇴계로26가길 6,중구,37.559088784483,126.990266277968
마라전설,중식,서울특별시 중랑구 면목로35길 31,중랑구,37.5786175851862,127.084233169369
프랭크버거 신내점,패스트푸드,서울특별시 중랑구 신내로14길 26,중랑구,37.6054986627446,127.097037404944
금남시장 뽀빠이치킨 2호직영점,치킨,서울특별시 성동구 독서당로 303-7,성동구,37.5484529735689,127.022712788903
카페소그노,카페/디저트,서울특별시 성동구 행당로17길 1-57,성동구,37.5588440733156,127.033087732894
커피를그리다,카페/디저트,서울특별시 광진구 광나루로36길 20,광진구,37.5440796051554,127.086465225399
실로(Shiloh),아시안/양식,서울특별시 용산구 이태원로54길 58-18,용산구,37.5358197161143,127.000773337125
하버,한식,서울특별시 용산구 한강대로38가길 7-24,용산구,37.5298982054592,126.969930255736
재마니김밥,도시락,서울특별시 종로구 사직로 133-10,종로구,37.5763697307986,126.973446518447
정읍식당 수제어묵,한식,서울특별시 종로구 난계로29길 72,종로구,37.5735384994346,127.019318383748
싸다아구찜탕,찜탕,서울특별시 노원구 상계로9길 23-10,노원구,37.6583815181043,127.06592768863
이태리 철판,한식,서울특별시 노원구 공릉로 225,노원구,37.6293216620848,127.07661721042
그냥와 포차,야식,서울특별시 은평구 응암로12길 26-37,은평구,37.5864341721864,126.919014010608
초이라멘,돈까스/일식,서울특별시 은평구 갈현로11길 5,은평구,37.6053651297176,126.909886240258
좋은사람포차,야식,서울특별시 강북구 삼양로54길 6,강북구,37.6245352092925,127.01881831088
진리국밥&제육대감 번동점,찜탕,서울특별시 강북구 오현로34길 40,강북구,37.6275622121116,127.039431977596
THE 곰탕,찜탕,서울특별시 중구 삼일대로 343,중구,37.5651004556362,126.986959615068
소연스넥,분식,서울특별시 중구 을지로 지하 131,중구,37.5664453133971,126.994077559861
한암동 을지타워점,한식,서울특별시 중구 을지로 170,중구,37.5661391831606,126.99732748195
카페111 (cafe111),카페/디저트,서울특별시 중랑구 동일로123길 49,중랑구,37.5979706346489,127.077247266095
포차전집,야식,서울특별시 중랑구 면목로44라길 1,중랑구,37.5810728296691,127.091332183222
고든램지 스트리트 피자 서울숲점,피자,서울특별시 성동구 왕십리로 83-21,성동구,37.5441547484979,127.043357753557
낙원갈비집 구의점,한식,서울특별시 광진구 광나루로 508,광진구,37.5447981575587,127.085963863525
대박삼겹김치찜&초대박등갈비김치찜(구의점),한식,서울특별시 광진구 자양로30길 56,광진구,37.5430857225459,127.087916530473
맘푸드,한식,서울특별시 광진구 아차산로57길 28,광진구,37.5397294944619,127.08852608661
윤숲,아시안/양식,서울특별시 광진구 긴고랑로20길 51,광진구,37.5590965357252,127.082824182322
찌웅이네숯불두마리치킨 광진건대점,한식,서울특별시 광진구 능동로 69,광진구,37.5378412310188,127.068994278343
데모(DEMO),한식,서울특별시 용산구 이태원로19길 13,용산구,37.5350118663396,126.99179015609
어반플랜트 이태원,아시안/양식,서울특별시 용산구 녹사평대로32길 11,용산구,37.533665322216,126.989532586308
우주 서울,아시안/양식,서울특별시 용산구 이태원로19길 6-6,용산구,37.5347540293872,126.992225668222
카페 아나트라(Cafe Anatra),카페/디저트,서울특별시 용산구 한강대로21길 17-14,용산구,37.5264739400613,126.963506775767
투썸플레이스 이태원점,카페/디저트,서울특별시 용산구 이태원로 167,용산구,37.5345905186051,126.992549383981
조선육회,회,서울특별시 서대문구 수색로 144,서대문구,37.5753161142479,126.905244332721
요거넛넘버나인태릉입구역점,아시안/양식,서울특별시 노원구 동일로176길 11-28,노원구,37.6203873685867,127.075667885827
골목장어,한식,서울특별시 도봉구 방학로3길 108,도봉구,37.6585035386121,127.038621370138
비에이치씨(BHC) 장위점,치킨,서울특별시 성북구 돌곶이로40길 46,성북구,37.6198223851288,127.049660439134
본초야,한식,서울특별시 강북구 도봉로8길 35,강북구,37.6122338585921,127.03209690879
다모아,한식,서울특별시 중구 장충단로8길 11,중구,37.562071721429,127.007115046724
꼼주상봉,한식,서울특별시 중랑구 봉우재로33길 62,중랑구,37.5949026870373,127.08899304315
마레(MARE),아시안/양식,서울특별시 중랑구 용마산로129길 61,중랑구,37.6069455895328,127.097550274465
피자글릭 묵동점,피자,서울특별시 중랑구 공릉로 32,중랑구,37.6136313827671,127.078318153395
뚝도살롱,아시안/양식,서울특별시 성동구 아차산로 46,성동구,37.5463170333929,127.049381696331
소소떡볶이,분식,서울특별시 광진구 자양로25길 2,광진구,37.5414741066272,127.083571177662
유심빵집,카페/디저트,서울특별시 광진구 긴고랑로 144,광진구,37.5586606767164,127.090850636297
자담치킨 중곡점,치킨,서울특별시 광진구 용마산로 94-1,광진구,37.562181641728,127.087442542015
바엔디(bar ND),아시안/양식,서울특별시 용산구 이태원로42길 34,용산구,37.5360928109449,127.00048391733
빌라안나(villa anna),아시안/양식,서울특별시 용산구 독서당로20길 9-15,용산구,37.5331898541359,127.009519010131
칼트칼터칼트,아시안/양식,서울특별시 용산구 녹사평대로40가길 3-3,용산구,37.5352850570059,126.987719358376
춘하추동,한식,서울특별시 서대문구 세검정로 45-1,서대문구,37.5924540714174,126.9463640395
꽁꽁삼겹살 차돌박이,한식,서울특별시 노원구 석계로 18 (월계동),노원구,37.6164365300658,127.064449217514
평창메밀,한식,서울특별시 노원구 상계로 147,노원구,37.6587990933327,127.070798529586
마치노쇼쿠도,돈까스/일식,서울특별시 도봉구 도봉로165길 17,도봉구,37.6770995978497,127.044010859292
봉명동내커피 도봉점,카페/디저트,서울특별시 도봉구 도봉로123길 10,도봉구,37.6527583430024,127.03632761306
꺼꾸로,한식,서울특별시 성북구 종암로28길 36,성북구,37.6015697287817,127.034079744634
위치,한식,서울특별시 성북구 삼선교로24길 38,성북구,37.5884718506025,127.016256381034
피쉬펍,치킨,서울특별시 성북구 고려대로24길 56,성북구,37.5836656862224,127.029314015985
24시포차간이역,야식,서울특별시 강북구 삼양로87길 35,강북구,37.6358688079362,127.015718239272
세친구 곱창,한식,서울특별시 동대문구 답십리로65길 124-4,동대문구,37.5780083688066,127.070424341528
젓가락질 잘해야만 밥을 먹나요,한식,서울특별시 동대문구 사가정로 41-1,동대문구,37.5729802022403,127.051565941955
알돈,돈까스/일식,서울특별시 중구 다동길 43,중구,37.5682179109709,126.981614792564
촨촨지우바,중식,서울특별시 중구 을지로 157,중구,37.5671458986322,126.995451191045
최가네,한식,서울특별시 성동구 청계천로12가길 43,성동구,37.5710320284766,127.035864524434
핍스(PEEPS),아시안/양식,서울특별시 성동구 서울숲4길 16-25,성동구,37.5468859197462,127.042440925531
호프광장,치킨,서울특별시 광진구 광나루로 379,광진구,37.5482959317387,127.072086799991
마음집,아시안/양식,서울특별시 용산구 한강대로10길 11-76,용산구,37.5246868787191,126.964949108841
수베니어,아시안/양식,서울특별시 용산구 한강대로15길 9,용산구,37.5257428034399,126.963886338534
지호 한방 삼계탕,찜탕,서울특별시 종로구 난계로 241,종로구,37.5732544172469,127.022842009254
타이거(Tiger),치킨,서울특별시 종로구 수표로22길 17,종로구,37.5712960254023,126.990320608988
카페94(cafe94),카페/디저트,서울특별시 서대문구 세검정로 99,서대문구,37.5963746412486,126.948995191913
공릉닭한마리,한식,서울특별시 노원구 동일로218길 17,노원구,37.6538758836589,127.061772133025
비스트로 리베르따,아시안/양식,서울특별시 노원구 석계로7길 11,노원구,37.6163999879749,127.063882178087
Lazy slow(레이지슬로우),한식,서울특별시 은평구 연서로 118,은평구,37.6093364223052,126.916502898582
킹콩부대찌개 은평신사점,찜탕,서울특별시 은평구 은평로 22,은평구,37.5977484830605,126.910550844624
만만한탕수육 길음뉴타운점,찜탕,서울특별시 성북구 정릉로38가길 13,성북구,37.6019166447007,127.017995558716
원조남원연탄갈비구이,한식,서울특별시 중구 퇴계로86길 30,중구,37.5643306389138,127.019598746385
엄마밥상,한식,서울특별시 서대문구 통일로 203,서대문구,37.5712394969,126.960916272845
그랩썸띵(Grab something),아시안/양식,서울특별시 노원구 공릉로 119,노원구,37.6208802261683,127.07826572256
멘부리 노원점,돈까스/일식,서울특별시 노원구 상계로24길 14,노원구,37.6577492549649,127.069916404054
도봉푸드,한식,서울특별시 도봉구 노해로70길 46,도봉구,37.6502819830907,127.051377751402
팩토리2,한식,서울특별시 도봉구 방학로2길 23,도봉구,37.6640168145736,127.040790568702
된장남,한식,서울특별시 은평구 갈현로 302-3,은평구,37.623817994043,126.917386008803
라온상회,한식,서울특별시 은평구 통일로 839-3,은평구,37.6179396626028,126.921312491652
세컨드 사이트 컴퍼니,아시안/양식,서울특별시 은평구 응암로14길 15,은평구,37.5902097963682,126.919036754252
타코야끼 붕어빵,카페/디저트,서울특별시 은평구 통일로 928,은평구,37.6257191192306,126.920331104981
돈까스짱 한성대,아시안/양식,서울특별시 성북구 동소문로 3-1,성북구,37.5889611183766,127.006690750779
특별식당,돈까스/일식,서울특별시 성북구 개운사길 22-6,성북구,37.5873467848241,127.029668484581
히어로보드게임카페 성신여대점,카페/디저트,서울특별시 성북구 보문로34길 62,성북구,37.5908419743847,127.01885953079
동네해장국,찜탕,서울특별시 강북구 수유로17길 6 (수유동),강북구,37.6362976615113,127.020513124229
맥주주소,야식,서울특별시 강북구 오패산로30길 37,강북구,37.6147921491254,127.03487307084
왕이모네,한식,서울특별시 중랑구 면목로44길 7,중랑구,37.5814277594222,127.089054438884
상상식당,아시안/양식,서울특별시 광진구 아차산로 431,광진구,37.5386539726559,127.090190805314
플랜비,아시안/양식,서울특별시 광진구 아차산로 301,광진구,37.5384992923832,127.076500764666
곤드레밥&고깃집,한식,서울특별시 용산구 이태원로16길 3 (이태원동),용산구,37.5340702649506,126.991027122946
능동미나리,돈까스/일식,서울특별시 용산구 한강대로40길 28,용산구,37.5300913330665,126.970819985244
명성식당,한식,서울특별시 용산구 원효로35가길 2,용산구,37.5338651470143,126.956396918453
메가엠지씨커피 명동중앙점,카페/디저트,서울특별시 중구 명동8가길 22,중구,37.5615810803742,126.986226918198
바른 경양식,아시안/양식,서울특별시 중구 퇴계로 180,중구,37.5608690857387,126.991728352108
성수동 셋째집,한식,서울특별시 성동구 상원1길 26,성동구,37.546194350143,127.048432321547
서울익스프레스88,중식,서울특별시 종로구 삼일대로15길 1,종로구,37.568766922309,126.987365453777
KFC 미아사거리역점,패스트푸드,서울특별시 강북구 도봉로10길 12,강북구,37.613138533329,127.030774638859
bhc청량리점,치킨,서울특별시 동대문구 제기로38길 13,동대문구,37.5852469252006,127.050615442133
양꼬치92,중식,서울특별시 동대문구 답십리로 72,동대문구,37.5752137257306,127.048695289059
김밥도 요리다,도시락,서울특별시 중랑구 면목로44길 28,중랑구,37.5808876739048,127.089807673098
주식회사 나르항,아시안/양식,서울특별시 중랑구 용마산로 506,중랑구,37.5960838156398,127.100422222584
홍콩다방 중랑구청점,카페/디저트,서울특별시 중랑구 봉화산로 194,중랑구,37.6064526315197,127.094707041869
올음,돈까스/일식,서울특별시 성동구 동일로 75-18,성동구,37.5401024533214,127.062213916016
2호선포차,야식,서울특별시 광진구 자양로13길 20,광진구,37.5353633128629,127.082848728744
모조 루프탑(MOJO ROOFTOP),아시안/양식,서울특별시 용산구 이태원로27가길 58,용산구,37.5349599000579,126.992104923919
99갈비집,한식,서울특별시 서대문구 세검정로 64,서대문구,37.5932996911579,126.947858416798
구여사컵밥,한식,서울특별시 서대문구 세검정로1길 65,서대문구,37.5935992994597,126.944945111306
스시코리아,돈까스/일식,서울특별시 노원구 동일로204가길 46,노원구,37.6412864943823,127.067907398806
모자식탁,한식,서울특별시 은평구 통일로71길 6,은평구,37.61407945046,126.926019769365
순이네,한식,서울특별시 성북구 돌곶이로39길 17,성북구,37.6172327903871,127.046959112789
어서오시게,한식,서울특별시 성동구 독서당로 228,성동구,37.5442202873215,127.015942376723
영광식당,한식,서울특별시 성동구 자동차시장1길 70,성동구,37.5603689173112,127.065148790474
금별맥주 종로점,야식,서울특별시 종로구 종로12길 18,종로구,37.5692537941409,126.985565356658
영빈루레드 서대문점,중식,서울특별시 종로구 통일로 134,종로구,37.5667996863316,126.966255525958
스몰스커피(SMALLS KOFFEE),카페/디저트,서울특별시 중구 퇴계로48길 32,중구,37.5612822122068,126.99994974711
오한수 우육면가 명동점,한식,서울특별시 중구 퇴계로 100,중구,37.5602069895052,126.982926486564
인제코다리찜,찜탕,서울특별시 강북구 한천로139길 17,강북구,37.6393762079618,127.026130731907
피자플렉스,피자,서울특별시 강북구 삼각산로 158,강북구,37.6418622988771,127.021661973801
문가곱창,한식,서울특별시 동대문구 한천로 115,동대문구,37.5717098049592,127.065379630322
불아더 숯불바베큐치킨 답십리점,한식,서울특별시 동대문구 답십리로51길 7-9,동대문구,37.5732726153087,127.05807606726
오사카철판쥬리,돈까스/일식,서울특별시 중랑구 면목로92가길 24,중랑구,37.5939902681479,127.087283630409
프랭크버거 아차산역점,패스트푸드,서울특별시 광진구 천호대로129길 7,광진구,37.5526086759589,127.090029490891
고깃세,한식,서울특별시 용산구 한강대로80길 3-4,용산구,37.5427856277661,126.973132663042
달래해장 이태원점,한식,서울특별시 용산구 보광로60길 22,용산구,37.5339072570248,126.995455586573
피치(PEACH),아시안/양식,서울특별시 용산구 이태원로 173-7,용산구,37.5348758160203,126.993222665213
할리스 숙대입구점,카페/디저트,서울특별시 용산구 청파로 276,용산구,37.5442899576622,126.970939489942
옥희네 떡볶이,분식,서울특별시 서대문구 신촌로 61-1,서대문구,37.5566854138433,126.933313762357
메가엠지씨커피 방학점,카페/디저트,서울특별시 도봉구 방학로 192,도봉구,37.6623100399717,127.030855447811
Good닭,치킨,서울특별시 은평구 불광로 50-15,은평구,37.6111609413214,126.931653493929
처갓집양념치킨 길음뉴타운점,치킨,서울특별시 성북구 숭인로 10,성북구,37.6116407256131,127.023322181593
구구족 용산점,한식,서울특별시 용산구 녹사평대로 230,용산구,37.5381420635615,126.987099861521
오달매,한식,서울특별시 종로구 통일로 230,종로구,37.574374261303,126.958604295236
담소커피,카페/디저트,서울특별시 중구 남대문시장4길 28-4,중구,37.5590024457091,126.977070667364
부타이 제6막,돈까스/일식,서울특별시 중구 남대문로 81,중구,37.5647299033135,126.981730421825
직화한상,한식,서울특별시 중구 서소문로11길 19,중구,37.5637878280982,126.972089131199
살 찜,찜탕,서울특별시 노원구 상계로23다길 3,노원구,37.6590145187879,127.068818059376
해피치즈스마일 노원점,분식,서울특별시 노원구 상계로3길 9,노원구,37.6566853639068,127.06221518856
손오공마라탕 경희대점,찜탕,서울특별시 동대문구 경희대로 3-1,동대문구,37.5919932518172,127.052144181811
삼범 초밥,돈까스/일식,서울특별시 중랑구 면목로 363,중랑구,37.5845550876248,127.088239942237
일일유통,한식,서울특별시 중랑구 면목로47길 41,중랑구,37.5823571398695,127.085512851937
국밥의 사명,찜탕,서울특별시 광진구 광나루로 548,광진구,37.5445677777084,127.090302259909
피자샵 자양점,피자,서울특별시 광진구 뚝섬로 654,광진구,37.5312846619297,127.08220488099
홍꿀,한식,서울특별시 광진구 뚝섬로 714,광진구,37.5334094193717,127.088417581716
무인,아시안/양식,서울특별시 용산구 이태원로 173-7,용산구,37.5348758160203,126.993222665213
헤비사이드(heaviside),한식,서울특별시 용산구 한강대로 164,용산구,37.5334043218418,126.972347782131
만원수산,돈까스/일식,서울특별시 노원구 한글비석로24길 49,노원구,37.6628590986958,127.07286453767
마나쯔,돈까스/일식,서울특별시 서대문구 연세로9길 37,서대문구,37.5585325372377,126.934582765695
우동 야마이루식 창동점,돈까스/일식,서울특별시 도봉구 해등로 67,도봉구,37.6494724805178,127.041708290067
치디커피,카페/디저트,서울특별시 은평구 연서로23길 8-6,은평구,37.6159077236763,126.917571907519
라멘짱 용산점,돈까스/일식,서울특별시 용산구 한강대로23길 55,용산구,37.5297718014452,126.964741503485
라거스팟 광장시장,치킨,서울특별시 종로구 동호로 401-1,종로구,37.5702390920153,127.001697822854
대성식당,한식,서울특별시 중구 창경궁로1길 38,중구,37.5625194941339,126.996337929869
본죽&비빔밥 가오리역점,한식,서울특별시 강북구 삼양로 423,강북구,37.6412513516267,127.016597361265
삼양족발,족발/보쌈,서울특별시 강북구 삼양로 201,강북구,37.6217553549162,127.020142120687
마라입구마라탕,찜탕,서울특별시 동대문구 장한로 29,동대문구,37.5641711527487,127.066066875031
혜니키친,한식,서울특별시 동대문구 고산자로36길 3,동대문구,37.5790377655561,127.039142935818
카츠와이찌,돈까스/일식,서울특별시 노원구 공릉로43길 11,노원구,37.62606629576,127.07895945111
담은 식당,한식,서울특별시 서대문구 통일로 462-10,서대문구,37.5901602112565,126.943416943896
I BIG 정육식당,한식,서울특별시 도봉구 시루봉로15길 15,도봉구,37.6678729325336,127.032652777213
은경,한식,서울특별시 은평구 은평로 136,은평구,37.6002632124439,126.923039015434
아비꼬 공릉역점,돈까스/일식,서울특별시 노원구 동일로 1078,노원구,37.6261419906738,127.073066569824
미도인 왕십리역사,아시안/양식,서울특별시 성동구 왕십리광장로 17,성동구,37.5614417528647,127.038394194396
바있는포차,야식,서울특별시 용산구 이태원로20가길 16,용산구,37.5334588919931,126.993050367885
케르반 카페,카페/디저트,서울특별시 용산구 우사단로10길 17,용산구,37.5332998387461,126.996534412221
파스타를 부탁해 숙대점,아시안/양식,서울특별시 용산구 효창원로 265-4,용산구,37.5508716994054,126.963592319893
깐부치킨 명동점,치킨,서울특별시 중구 명동8가길 22,중구,37.5615810803742,126.986226918198
글리풀커피 (gleefulcoffee),카페/디저트,서울특별시 중랑구 망우로30길 8,중랑구,37.5928619662699,127.07437556869
지사부왕만두찐빵,카페/디저트,서울특별시 중랑구 면목로55길 26,중랑구,37.5843894907126,127.086896425583
합리화,한식,서울특별시 도봉구 도봉로112길 20,도봉구,37.6467332878641,127.035739310081
라푸라(LAFULA),한식,서울특별시 은평구 통일로 1080,은평구,37.6392342317325,126.917530394384
카페 309,카페/디저트,서울특별시 은평구 의상봉길 56-16,은평구,37.6517087166337,126.943933360808
천생횟집,회,서울특별시 노원구 초안산로1길 15,노원구,37.6272711837252,127.053424549757
쉬즈베이글 커피,카페/디저트,서울특별시 성북구 장월로1길 60,성북구,37.6060425047977,127.044881754603
스튜디오 75,아시안/양식,서울특별시 용산구 신흥로11길 51,용산구,37.5448188639153,126.985804757507
머큐리 에스프레소바,아시안/양식,서울특별시 용산구 한강대로11길 30,용산구,37.5256876900684,126.962247021737
네기 라이브,돈까스/일식,서울특별시 성동구 성수이로 97,성동구,37.5436475647062,127.056584886113
아이노가든,한식,서울특별시 종로구 경희궁2길 10,종로구,37.5727880372533,126.971268698044
타파스옥,아시안/양식,서울특별시 종로구 사직로12길 1-2,종로구,37.5756071537762,126.971244294961
돈블리,아시안/양식,서울특별시 중구 서소문로9길 28,중구,37.5637084894676,126.970042986983
디엣지,아시안/양식,서울특별시 중구 을지로12길 8,중구,37.5659649840009,126.991077289945
케밥웨이(KEBABWAY),아시안/양식,서울특별시 중구 을지로 258,중구,37.566055327216,127.006585359611
잔비어,치킨,서울특별시 중랑구 사가정로 359,중랑구,37.5812506066326,127.08454452623
한밀청년밥상,한식,서울특별시 중랑구 동일로140길 15,중랑구,37.6043694603432,127.079965365014
뎁스275,아시안/양식,서울특별시 서대문구 충정로4길 14,서대문구,37.5607467466273,126.963964409232
슬빵준빵,카페/디저트,서울특별시 노원구 섬밭로 190,노원구,37.6330646443357,127.06712319369
카페 하루하나,카페/디저트,서울특별시 노원구 덕릉로126길 12,노원구,37.6703749341833,127.082132953815
꼰대순대곱창,한식,서울특별시 성북구 동소문로46길 18,성북구,37.6068583127175,127.029938182637
순이김밥,도시락,서울특별시 성북구 아리랑로5길 24,성북구,37.5968432533366,127.014022017071
리파인수유점,한식,서울특별시 강북구 노해로8길 22,강북구,37.6380051354791,127.024224911455
봉봉 디저트 카페,카페/디저트,서울특별시 성동구 뚝섬로 404,성동구,37.5385725373403,127.05537319774
퓨전,한식,서울특별시 중랑구 봉우재로 148-1,중랑구,37.5931584041662,127.089421468009
순살만공격 성북석관점,치킨,서울특별시 성북구 화랑로30길 26,성북구,37.6095758818589,127.055929895248
신미방마라탕,찜탕,서울특별시 성북구 삼양로 35,성북구,37.606231004929,127.023773153729
이가왕갈비탕찜,찜탕,서울특별시 성북구 화랑로 237,성북구,37.6105746512423,127.055690991735
이모네 식당,한식,서울특별시 성북구 한천로99길 16,성북구,37.6214638891481,127.050940953478
당선인치킨 군자점,치킨,서울특별시 광진구 광나루로 361,광진구,37.5484457321993,127.069745720123
본죽앤비빔밥 구의시장점,한식,서울특별시 광진구 광나루로 533,광진구,37.5450688365228,127.088859538702
채원크리스피통삼겹,한식,서울특별시 광진구 뚝섬로23길 50,광진구,37.5372335825604,127.066184986993
유연한식당,돈까스/일식,서울특별시 동대문구 답십리로66길 72,동대문구,37.5696077344558,127.066754807148
오뜨네프 테일러바,아시안/양식,서울특별시 용산구 서빙고로73길 10,용산구,37.5215252748314,126.996522513466
온기정 용산아이파크몰점,돈까스/일식,서울특별시 용산구 한강대로23길 55,용산구,37.5297718014452,126.964741503485
호우섬 용산아이파크몰점,중식,서울특별시 용산구 한강대로23길 55,용산구,37.5297718014452,126.964741503485
마르코존스피자&오렌지몽키파스타,피자,서울특별시 도봉구 도봉로 581,도봉구,37.6570120913861,127.039323680367
온달집 응암오거리점,한식,서울특별시 은평구 응암로11길 9-1,은평구,37.5884961508752,126.915496984119
파발곰탕,찜탕,서울특별시 은평구 통일로72길 3,은평구,37.6162135005271,126.924689052327
춘천 숯불 닭갈비,한식,서울특별시 노원구 한글비석로24마길 9,노원구,37.6633234248261,127.073073984802
제이(J),아시안/양식,서울특별시 성북구 장월로1마길 46-8,성북구,37.6064333421961,127.04346952853
후후세이지,돈까스/일식,서울특별시 성북구 정릉로26길 32,성북구,37.6035979535957,127.011804564032
이반찬찜했어,찜탕,서울특별시 강북구 노해로17길 16,강북구,37.6407456462293,127.021511523589
해피나우커피,카페/디저트,서울특별시 종로구 경교장길 35,종로구,37.5688537151032,126.965114852628
막창왕,한식,서울특별시 은평구 은평로9길 22-12,은평구,37.6018797289859,126.921744221197
3교시,아시안/양식,서울특별시 서대문구 거북골로 21-5,서대문구,37.5800859105488,126.925229470609
다원,한식,서울특별시 서대문구 홍은중앙로 81,서대문구,37.5984516484115,126.94664554837
태성골뱅이,한식,서울특별시 서대문구 연희맛로 2-3,서대문구,37.5656578975172,126.928538140075
맘스터치 피자앤치킨 도봉방학점,피자,서울특별시 도봉구 방학로 135,도봉구,37.6626190537922,127.037182436795
두마리찜닭 두찜 노원중계점,찜탕,서울특별시 노원구 중계로 162-11,노원구,37.6498094888774,127.081489779954
대부라멘,돈까스/일식,서울특별시 성북구 고려대로26길 14,성북구,37.5855272774217,127.029836685004
미미가,중식,서울특별시 성북구 보문로13나길 18,성북구,37.5793055046842,127.021843538917
육회2990,회,서울특별시 광진구 광나루로 361,광진구,37.5484457321993,127.069745720123
쌈마루,한식,서울특별시 동대문구 서울시립대로 45,동대문구,37.5754803426518,127.046883524896
버거 스미스,패스트푸드,서울특별시 용산구 장문로6길 104,용산구,37.5258278345412,126.996606707692
후또후또,돈까스/일식,서울특별시 성동구 왕십리로4길 26-7,성동구,37.5470259422122,127.046717570956
본죽&비빔밥 왕십리뉴타운점,한식,서울특별시 성동구 무학로 33,성동구,37.5691641596929,127.02634785313
우탕밥,찜탕,서울특별시 종로구 새문안로3길 36,종로구,37.5734318183566,126.973272779932
카페 델 꼬또네,카페/디저트,서울특별시 종로구 창덕궁1길 32,종로구,37.5794190351724,126.987477090079
더몬드,아시안/양식,서울특별시 중구 다동길 33,중구,37.5679913247653,126.981133780839
1인피자 엠단테 응암점,피자,서울특별시 은평구 가좌로7나길 19,은평구,37.5846865586609,126.91907556956
E&H FOOD(이앤에이치 푸드),한식,서울특별시 은평구 갈현로 217,은평구,37.6166872546538,126.914278402022
뚱가네 닭발,한식,서울특별시 노원구 상계로18길 35,노원구,37.6569482712744,127.070086437084
미스사이공 공릉점,아시안/양식,서울특별시 노원구 공릉로 158,노원구,37.6239810932315,127.07970215602
상상키친,아시안/양식,서울특별시 노원구 한글비석로31길 20 (상계동),노원구,37.6610027906171,127.069609828444
BBQ묵동먹골점,치킨,서울특별시 중랑구 숙선옹주로 29-1,중랑구,37.6146238591222,127.080008171459
닥엔돈스 중랑신내점,한식,서울특별시 중랑구 양원역로14길 7,중랑구,37.607339246101,127.106596669992
동근이 치킨,치킨,서울특별시 중랑구 상봉중앙로8가길 48-5,중랑구,37.6000904673589,127.090226300505
오거리카페,카페/디저트,서울특별시 중랑구 동일로126길 92,중랑구,37.5987059074866,127.08526771268
만냥포차,야식,서울특별시 성북구 한천로 586,성북구,37.6117689755463,127.062065172378
보편적 연어,회,서울특별시 성북구 동소문로20나길 52,성북구,37.5927833582014,127.019316450312
카렝 성신여대점,돈까스/일식,서울특별시 성북구 보문로40길 11,성북구,37.5918586065082,127.014025610945
동묘흑염소삼계탕,찜탕,서울특별시 동대문구 왕산로 17-10,동대문구,37.5768870866926,127.025300363893
미랑푸드,한식,서울특별시 동대문구 답십리로68길 112,동대문구,37.5679003587582,127.066895113215
에스피 글로비스,아시안/양식,서울특별시 용산구 백범로87길 48-10,용산구,37.5391314476181,126.969446797854
레시오,한식,서울특별시 종로구 평창문화로 75,종로구,37.606862635259,126.96900620111
동명푸드,중식,서울특별시 성동구 고산자로 299,성동구,37.5664743769739,127.036340793489
베어스타코,아시안/양식,서울특별시 종로구 종로53길 3,종로구,37.5727668942167,127.013421166492
올레포차,야식,서울특별시 종로구 창신길 30,종로구,37.5730286334688,127.010782296042
심퍼티쿠시 서울역점,아시안/양식,서울특별시 중구 세종대로 14,중구,37.5578385325826,126.9744151
카페아이엠티 을지로점,카페/디저트,서울특별시 중구 청계천로 100,중구,37.5674727196383,126.98811318937
뽀꾸 뽀꾸,한식,서울특별시 도봉구 도봉로180나길 41,도봉구,37.6843445449287,127.049895811436
오늘통닭 창동점,치킨,서울특별시 도봉구 마들로11가길 15,도봉구,37.6526568870103,127.049257910527
커스텀커피 노원역점,카페/디저트,서울특별시 노원구 노해로 452,노원구,37.6535043114989,127.058425653348
옥이네 김치찌개와 직화삼겹,한식,서울특별시 강북구 솔매로 64 (미아동),강북구,37.6247634373929,127.019325742208
완미족발 수유점,족발/보쌈,서울특별시 강북구 노해로 34,강북구,37.638548927809,127.023087223246
한우특가 신내점,한식,서울특별시 중랑구 봉화산로 243,중랑구,37.6083342465594,127.099644557906
홍천칼국수,한식,서울특별시 중랑구 면목로49길 35,중랑구,37.5827474795087,127.08646203709
영달이네뒷꼬기,한식,서울특별시 성북구 보문로40길 34,성북구,37.5919281689467,127.015423204334
더피자보이즈 광진군자점,피자,서울특별시 광진구 능동로 275-1,광진구,37.5546941780361,127.077783260568
키친 마카로니,아시안/양식,서울특별시 동대문구 한천로24길 74-16,동대문구,37.5678356016246,127.067799912783
군몽,아시안/양식,서울특별시 용산구 한남대로27가길 15,용산구,37.5373857118299,127.002909211408
다미,아시안/양식,서울특별시 용산구 이태원로 134,용산구,37.5338843799527,126.988815922078
미래회관 한남,한식,서울특별시 용산구 대사관로31길 29,용산구,37.53463223588,127.005831785916
도킹,한식,서울특별시 종로구 수표로 120,종로구,37.5719674401575,126.989202801567
마리오 부대찌개,찜탕,서울특별시 종로구 삼청로 125,종로구,37.5865770103043,126.981547440691
충전에그버거,패스트푸드,서울특별시 종로구 성균관로 9-1,종로구,37.5837075999665,126.99791999332
틴틴 대학로점,아시안/양식,서울특별시 종로구 대학로10길 15-11,종로구,37.5822609507002,127.002771590367
다웃풀클럽(doubtful club),아시안/양식,서울특별시 중구 다산로35길 37,중구,37.5643447049952,127.013789436735
우라야,돈까스/일식,서울특별시 중구 다산로39길 24,중구,37.5645494102501,127.014549299645
정동분식 정동가,분식,서울특별시 중구 서소문로11길 19,중구,37.5637878280982,126.972089131199
노랑통닭,치킨,서울특별시 은평구 진관3로 33,은평구,37.6397528801196,126.919945513653
불낙새 브라더,한식,서울특별시 은평구 역말로 84-9,은평구,37.6069090929323,126.920053547269
옛날국시,한식,서울특별시 은평구 응암로4길 20,은평구,37.5865370630075,126.917578491129
3용이 포차,야식,서울특별시 노원구 노해로85길 10-55,노원구,37.6564361884886,127.06612372319
JW's garden(지원이의 정원),아시안/양식,서울특별시 노원구 한글비석로20길 60,노원구,37.6614853116842,127.075116503828
황금부대찌개,찜탕,서울특별시 노원구 덕릉로126길 6,노원구,37.6702347936839,127.081798877878
김호권의 청년어부 초밥(수유점),돈까스/일식,서울특별시 강북구 도봉로 387,강북구,37.6415059261581,127.028957387424
빼지,치킨,서울특별시 중랑구 봉우재로37길 17,중랑구,37.593625662888,127.087734657026
목욕탕 실내포차,야식,서울특별시 동대문구 전농로29길 95,동대문구,37.5788395264805,127.056346485774
와쇼쿠 히가시,돈까스/일식,서울특별시 용산구 독서당로 27,용산구,37.5309606592388,127.007389953262
컵앤볼,아시안/양식,서울특별시 용산구 두텁바위로 147,용산구,37.5515461905001,126.980839164802
닌자233,돈까스/일식,서울특별시 종로구 율곡로 233,종로구,37.5759073438289,127.00485454069
먼키 이너프카츠 7호,돈까스/일식,서울특별시 중구 서소문로 89-20,중구,37.5632510909133,126.972031493823
솥내음 파인애비뉴점,한식,서울특별시 중구 을지로 100,중구,37.5656490167105,126.988142568678
돈보2,돈까스/일식,서울특별시 용산구 이태원로 162,용산구,37.5341490738385,126.991875445969
메치스,한식,서울특별시 용산구 한강대로80길 21-3 (남영동),용산구,37.5428263610867,126.973973610998
열정분식,분식,서울특별시 용산구 청파로 326,용산구,37.5487093536412,126.970200289926
기보감 삼계탕 앤 호호미역,찜탕,서울특별시 중구 소공로 46,중구,37.5594119017486,126.983219915695
박영희 왕만두 전문점,분식,서울특별시 도봉구 노해로63길 84-9,도봉구,37.6525366988117,127.047268829188
중랑설렁탕,찜탕,서울특별시 중랑구 중랑역로 22,중랑구,37.5960231995771,127.076328504303
장순루,중식,서울특별시 광진구 아차산로76길 11,광진구,37.5478410417974,127.107781108425
소림마라 가재울점,중식,서울특별시 서대문구 가재울미래로 2,서대문구,37.5744203632344,126.917897379411
통큰냄비,한식,서울특별시 서대문구 연세로4길 7,서대문구,37.557083987471,126.937376871643
서리등 커피부엌,카페/디저트,서울특별시 은평구 진흥로5길 6-12,은평구,37.6033459477628,126.920452475312
